{"type":"FeatureCollection","features":[{"type":"Feature","properties":{"CityName":"Delta","CityType":"N","Name":"Annie's Clothing and Make Up By Triz","Category":"O","Long":"6.1845299","Lat":"6.2569417","Type":"ClothingStore","SubType":"ClothingStore","Label":"'FoodJoint','ClothingStore','Entertainment','Female Adults','Male Adults'","Cluster":"1","SubCluster":"2","CLat_sub":"6.252934727","CLong_sub":"6.259183161","CityId":"103","UserId":"15","SubClusterFinal":"1"},"geometry":{"type":"Point","coordinates":[6.18453,6.256942]}},{"type":"Feature","properties":{"CityName":"Delta","CityType":"N","Name":"Apparel and clothing","Category":"O","Long":"6.205701","Lat":"6.2541433","Type":"ClothingStore","SubType":"ClothingStore","Label":"'FoodJoint','ClothingStore','Entertainment','Female Adults','Male Adults'","Cluster":"1","SubCluster":"2","CLat_sub":"6.252934727","CLong_sub":"6.259183161","CityId":"103","UserId":"15","SubClusterFinal":"1"},"geometry":{"type":"Point","coordinates":[6.205701,6.254143]}},{"type":"Feature","properties":{"CityName":"Delta","CityType":"N","Name":"U'threadit clothing","Category":"O","Long":"6.2057009","Lat":"6.2541433","Type":"ClothingStore","SubType":"ClothingStore","Label":"'FoodJoint','ClothingStore','Entertainment','Female Adults','Male Adults'","Cluster":"1","SubCluster":"2","CLat_sub":"6.252934727","CLong_sub":"6.259183161","CityId":"103","UserId":"15","SubClusterFinal":"1"},"geometry":{"type":"Point","coordinates":[6.205701,6.254143]}},{"type":"Feature","properties":{"CityName":"Delta","CityType":"N","Name":"Breadwinner & Adex Clothing","Category":"O","Long":"6.2057009","Lat":"6.2541433","Type":"ClothingStore","SubType":"ClothingStore","Label":"'FoodJoint','ClothingStore','Entertainment','Female Adults','Male Adults'","Cluster":"1","SubCluster":"2","CLat_sub":"6.252934727","CLong_sub":"6.259183161","CityId":"103","UserId":"15","SubClusterFinal":"1"},"geometry":{"type":"Point","coordinates":[6.205701,6.254143]}},{"type":"Feature","properties":{"CityName":"Delta","CityType":"N","Name":"Richies Luxury Home Agbor","Category":"O","Long":"6.1676206","Lat":"6.2621518","Type":"ClothingStore","SubType":"ClothingStore","Label":"'FoodJoint','ClothingStore','Entertainment','Female Adults','Male Adults'","Cluster":"1","SubCluster":"2","CLat_sub":"6.252934727","CLong_sub":"6.259183161","CityId":"103","UserId":"15","SubClusterFinal":"1"},"geometry":{"type":"Point","coordinates":[6.167621,6.262152]}},{"type":"Feature","properties":{"CityName":"Delta","CityType":"N","Name":"Gee Pee Kollections","Category":"O","Long":"6.5378888","Lat":"6.1861879","Type":"ClothingStore","SubType":"ClothingStore","Label":"'FoodJoint','ClothingStore','Entertainment','Female Adults','Male Adults'","Cluster":"1","SubCluster":"1","CLat_sub":"6.202049584","CLong_sub":"6.69486274","CityId":"103","UserId":"15","SubClusterFinal":"2"},"geometry":{"type":"Point","coordinates":[6.537889,6.186188]}},{"type":"Feature","properties":{"CityName":"Delta","CityType":"N","Name":"Upright Collections","Category":"O","Long":"6.5371071","Lat":"6.1874748","Type":"ClothingStore","SubType":"ClothingStore","Label":"'FoodJoint','ClothingStore','Entertainment','Female Adults','Male Adults'","Cluster":"1","SubCluster":"1","CLat_sub":"6.202049584","CLong_sub":"6.69486274","CityId":"103","UserId":"15","SubClusterFinal":"2"},"geometry":{"type":"Point","coordinates":[6.537107,6.187475]}},{"type":"Feature","properties":{"CityName":"Delta","CityType":"N","Name":"De'BillionCoin Venture's Nig Ltd","Category":"O","Long":"6.5316937","Lat":"6.1817495","Type":"ClothingStore","SubType":"ClothingStore","Label":"'FoodJoint','ClothingStore','Entertainment','Female Adults','Male Adults'","Cluster":"1","SubCluster":"1","CLat_sub":"6.202049584","CLong_sub":"6.69486274","CityId":"103","UserId":"15","SubClusterFinal":"2"},"geometry":{"type":"Point","coordinates":[6.531694,6.181749]}},{"type":"Feature","properties":{"CityName":"Delta","CityType":"N","Name":"Bright Paris Brand Boutique","Category":"O","Long":"6.5335412","Lat":"6.1843933","Type":"ClothingStore","SubType":"ClothingStore","Label":"'FoodJoint','ClothingStore','Entertainment','Female Adults','Male Adults'","Cluster":"1","SubCluster":"1","CLat_sub":"6.202049584","CLong_sub":"6.69486274","CityId":"103","UserId":"15","SubClusterFinal":"2"},"geometry":{"type":"Point","coordinates":[6.533541,6.184393]}},{"type":"Feature","properties":{"CityName":"Delta","CityType":"N","Name":"MIMI WEARS Collection","Category":"O","Long":"6.174902","Lat":"6.2484529","Type":"ClothingStore","SubType":"ClothingStore","Label":"'FoodJoint','ClothingStore','Entertainment','Female Adults','Male Adults'","Cluster":"1","SubCluster":"2","CLat_sub":"6.252934727","CLong_sub":"6.259183161","CityId":"103","UserId":"15","SubClusterFinal":"1"},"geometry":{"type":"Point","coordinates":[6.174902,6.248453]}},{"type":"Feature","properties":{"CityName":"Delta","CityType":"N","Name":"Alien collection store","Category":"O","Long":"6.174902","Lat":"6.2484529","Type":"ClothingStore","SubType":"ClothingStore","Label":"'FoodJoint','ClothingStore','Entertainment','Female Adults','Male Adults'","Cluster":"1","SubCluster":"2","CLat_sub":"6.252934727","CLong_sub":"6.259183161","CityId":"103","UserId":"15","SubClusterFinal":"1"},"geometry":{"type":"Point","coordinates":[6.174902,6.248453]}},{"type":"Feature","properties":{"CityName":"Delta","CityType":"N","Name":"Ruchie Fashion World","Category":"O","Long":"6.1819674","Lat":"6.2462629","Type":"ClothingStore","SubType":"ClothingStore","Label":"'FoodJoint','ClothingStore','Entertainment','Female Adults','Male Adults'","Cluster":"1","SubCluster":"2","CLat_sub":"6.252934727","CLong_sub":"6.259183161","CityId":"103","UserId":"15","SubClusterFinal":"1"},"geometry":{"type":"Point","coordinates":[6.181967,6.246263]}},{"type":"Feature","properties":{"CityName":"Delta","CityType":"N","Name":"Clothes & Apparels Creative Fashion House","Category":"O","Long":"6.2084193","Lat":"6.2474959","Type":"ClothingStore","SubType":"ClothingStore","Label":"'FoodJoint','ClothingStore','Entertainment','Female Adults','Male Adults'","Cluster":"1","SubCluster":"2","CLat_sub":"6.252934727","CLong_sub":"6.259183161","CityId":"103","UserId":"15","SubClusterFinal":"1"},"geometry":{"type":"Point","coordinates":[6.208419,6.247496]}},{"type":"Feature","properties":{"CityName":"Delta","CityType":"N","Name":"ROYAL COLLECTIONS","Category":"O","Long":"6.1441344","Lat":"6.2242319","Type":"ClothingStore","SubType":"ClothingStore","Label":"'FoodJoint','ClothingStore','Entertainment','Female Adults','Male Adults'","Cluster":"1","SubCluster":"2","CLat_sub":"6.252934727","CLong_sub":"6.259183161","CityId":"103","UserId":"15","SubClusterFinal":"1"},"geometry":{"type":"Point","coordinates":[6.144134,6.224232]}},{"type":"Feature","properties":{"CityName":"Delta","CityType":"N","Name":"Brinley kiddies world","Category":"O","Long":"6.2152758","Lat":"6.2299165","Type":"ClothingStore","SubType":"ClothingStore","Label":"'FoodJoint','ClothingStore','Entertainment','Female Adults','Male Adults'","Cluster":"1","SubCluster":"2","CLat_sub":"6.252934727","CLong_sub":"6.259183161","CityId":"103","UserId":"15","SubClusterFinal":"1"},"geometry":{"type":"Point","coordinates":[6.215276,6.229916]}},{"type":"Feature","properties":{"CityName":"Delta","CityType":"N","Name":"AUTOMOBILEIDCARD.COM","Category":"O","Long":"6.3017303","Lat":"6.2220467","Type":"ClothingStore","SubType":"ClothingStore","Label":"'FoodJoint','ClothingStore','Entertainment','Female Adults','Male Adults'","Cluster":"1","SubCluster":"2","CLat_sub":"6.252934727","CLong_sub":"6.259183161","CityId":"103","UserId":"15","SubClusterFinal":"1"},"geometry":{"type":"Point","coordinates":[6.30173,6.222047]}},{"type":"Feature","properties":{"CityName":"Delta","CityType":"N","Name":"Michael Concept","Category":"O","Long":"6.600079","Lat":"5.7240463","Type":"ClothingStore","SubType":"ClothingStore","Label":"'FoodJoint','ClothingStore','Entertainment','Female Adults','Male Adults'","Cluster":"1","SubCluster":"3","CLat_sub":"5.729697858","CLong_sub":"6.415706043","CityId":"103","UserId":"15","SubClusterFinal":"3"},"geometry":{"type":"Point","coordinates":[6.600079,5.724046]}},{"type":"Feature","properties":{"CityName":"Delta","CityType":"N","Name":"UNIQUE CLOTHING","Category":"O","Long":"6.4210368","Lat":"5.6916873","Type":"ClothingStore","SubType":"ClothingStore","Label":"'FoodJoint','ClothingStore','Entertainment','Female Adults','Male Adults'","Cluster":"1","SubCluster":"3","CLat_sub":"5.729697858","CLong_sub":"6.415706043","CityId":"103","UserId":"15","SubClusterFinal":"3"},"geometry":{"type":"Point","coordinates":[6.421037,5.691687]}},{"type":"Feature","properties":{"CityName":"Delta","CityType":"N","Name":"Soft clothing's shop","Category":"O","Long":"6.433233","Lat":"5.7015563","Type":"ClothingStore","SubType":"ClothingStore","Label":"'FoodJoint','ClothingStore','Entertainment','Female Adults','Male Adults'","Cluster":"1","SubCluster":"3","CLat_sub":"5.729697858","CLong_sub":"6.415706043","CityId":"103","UserId":"15","SubClusterFinal":"3"},"geometry":{"type":"Point","coordinates":[6.433233,5.701556]}},{"type":"Feature","properties":{"CityName":"Delta","CityType":"N","Name":"Ani Mo clothing empire shop","Category":"O","Long":"6.433233","Lat":"5.7015563","Type":"ClothingStore","SubType":"ClothingStore","Label":"'FoodJoint','ClothingStore','Entertainment','Female Adults','Male Adults'","Cluster":"1","SubCluster":"3","CLat_sub":"5.729697858","CLong_sub":"6.415706043","CityId":"103","UserId":"15","SubClusterFinal":"3"},"geometry":{"type":"Point","coordinates":[6.433233,5.701556]}},{"type":"Feature","properties":{"CityName":"Delta","CityType":"N","Name":"fashion design","Category":"O","Long":"6.7423506","Lat":"6.189208","Type":"ClothingStore","SubType":"ClothingStore","Label":"'FoodJoint','ClothingStore','Entertainment','Female Adults','Male Adults'","Cluster":"1","SubCluster":"1","CLat_sub":"6.202049584","CLong_sub":"6.69486274","CityId":"103","UserId":"15","SubClusterFinal":"2"},"geometry":{"type":"Point","coordinates":[6.742351,6.189208]}},{"type":"Feature","properties":{"CityName":"Delta","CityType":"N","Name":"Chibuzor Fashion Desi╟╡n","Category":"O","Long":"6.7511693","Lat":"6.1899731","Type":"ClothingStore","SubType":"ClothingStore","Label":"'FoodJoint','ClothingStore','Entertainment','Female Adults','Male Adults'","Cluster":"1","SubCluster":"1","CLat_sub":"6.202049584","CLong_sub":"6.69486274","CityId":"103","UserId":"15","SubClusterFinal":"2"},"geometry":{"type":"Point","coordinates":[6.751169,6.189973]}},{"type":"Feature","properties":{"CityName":"Delta","CityType":"N","Name":"STEFF'S FABRICS & STITCHES","Category":"O","Long":"6.7445273","Lat":"6.1865883","Type":"ClothingStore","SubType":"ClothingStore","Label":"'FoodJoint','ClothingStore','Entertainment','Female Adults','Male Adults'","Cluster":"1","SubCluster":"1","CLat_sub":"6.202049584","CLong_sub":"6.69486274","CityId":"103","UserId":"15","SubClusterFinal":"2"},"geometry":{"type":"Point","coordinates":[6.744527,6.186588]}},{"type":"Feature","properties":{"CityName":"Delta","CityType":"N","Name":"De varieties clothing and accessories store","Category":"O","Long":"6.7387411","Lat":"6.1894703","Type":"ClothingStore","SubType":"ClothingStore","Label":"'FoodJoint','ClothingStore','Entertainment','Female Adults','Male Adults'","Cluster":"1","SubCluster":"1","CLat_sub":"6.202049584","CLong_sub":"6.69486274","CityId":"103","UserId":"15","SubClusterFinal":"2"},"geometry":{"type":"Point","coordinates":[6.738741,6.18947]}},{"type":"Feature","properties":{"CityName":"Delta","CityType":"N","Name":"Twoface Garment Industry","Category":"O","Long":"6.7466582","Lat":"6.1815492","Type":"ClothingStore","SubType":"ClothingStore","Label":"'FoodJoint','ClothingStore','Entertainment','Female Adults','Male Adults'","Cluster":"1","SubCluster":"1","CLat_sub":"6.202049584","CLong_sub":"6.69486274","CityId":"103","UserId":"15","SubClusterFinal":"2"},"geometry":{"type":"Point","coordinates":[6.746658,6.181549]}},{"type":"Feature","properties":{"CityName":"Delta","CityType":"N","Name":"In-Mafat Enterprises","Category":"O","Long":"6.741263","Lat":"6.1834115","Type":"ClothingStore","SubType":"ClothingStore","Label":"'FoodJoint','ClothingStore','Entertainment','Female Adults','Male Adults'","Cluster":"1","SubCluster":"1","CLat_sub":"6.202049584","CLong_sub":"6.69486274","CityId":"103","UserId":"15","SubClusterFinal":"2"},"geometry":{"type":"Point","coordinates":[6.741263,6.183412]}},{"type":"Feature","properties":{"CityName":"Delta","CityType":"N","Name":"Femo Fashion","Category":"O","Long":"6.7487979","Lat":"6.1923604","Type":"ClothingStore","SubType":"ClothingStore","Label":"'FoodJoint','ClothingStore','Entertainment','Female Adults','Male Adults'","Cluster":"1","SubCluster":"1","CLat_sub":"6.202049584","CLong_sub":"6.69486274","CityId":"103","UserId":"15","SubClusterFinal":"2"},"geometry":{"type":"Point","coordinates":[6.748798,6.19236]}},{"type":"Feature","properties":{"CityName":"Delta","CityType":"N","Name":"Wili Fashion Republic","Category":"O","Long":"6.7357922","Lat":"6.1833818","Type":"ClothingStore","SubType":"ClothingStore","Label":"'FoodJoint','ClothingStore','Entertainment','Female Adults','Male Adults'","Cluster":"1","SubCluster":"1","CLat_sub":"6.202049584","CLong_sub":"6.69486274","CityId":"103","UserId":"15","SubClusterFinal":"2"},"geometry":{"type":"Point","coordinates":[6.735792,6.183382]}},{"type":"Feature","properties":{"CityName":"Delta","CityType":"N","Name":"Ozybest Fashion Centre","Category":"O","Long":"6.7479884","Lat":"6.1915242","Type":"ClothingStore","SubType":"ClothingStore","Label":"'FoodJoint','ClothingStore','Entertainment','Female Adults','Male Adults'","Cluster":"1","SubCluster":"1","CLat_sub":"6.202049584","CLong_sub":"6.69486274","CityId":"103","UserId":"15","SubClusterFinal":"2"},"geometry":{"type":"Point","coordinates":[6.747988,6.191524]}},{"type":"Feature","properties":{"CityName":"Delta","CityType":"N","Name":"MICKY'S","Category":"O","Long":"6.7367404","Lat":"6.1893198","Type":"ClothingStore","SubType":"ClothingStore","Label":"'FoodJoint','ClothingStore','Entertainment','Female Adults','Male Adults'","Cluster":"1","SubCluster":"1","CLat_sub":"6.202049584","CLong_sub":"6.69486274","CityId":"103","UserId":"15","SubClusterFinal":"2"},"geometry":{"type":"Point","coordinates":[6.73674,6.18932]}},{"type":"Feature","properties":{"CityName":"Delta","CityType":"N","Name":"Ugo Fashion Centre","Category":"O","Long":"6.748577","Lat":"6.192493","Type":"ClothingStore","SubType":"ClothingStore","Label":"'FoodJoint','ClothingStore','Entertainment','Female Adults','Male Adults'","Cluster":"1","SubCluster":"1","CLat_sub":"6.202049584","CLong_sub":"6.69486274","CityId":"103","UserId":"15","SubClusterFinal":"2"},"geometry":{"type":"Point","coordinates":[6.748577,6.192493]}},{"type":"Feature","properties":{"CityName":"Delta","CityType":"N","Name":"Emmy Collections","Category":"O","Long":"6.7395479","Lat":"6.1918188","Type":"ClothingStore","SubType":"ClothingStore","Label":"'FoodJoint','ClothingStore','Entertainment','Female Adults','Male Adults'","Cluster":"1","SubCluster":"1","CLat_sub":"6.202049584","CLong_sub":"6.69486274","CityId":"103","UserId":"15","SubClusterFinal":"2"},"geometry":{"type":"Point","coordinates":[6.739548,6.191819]}},{"type":"Feature","properties":{"CityName":"Delta","CityType":"N","Name":"Olamide Fashion Collection","Category":"O","Long":"6.7424223","Lat":"6.1941857","Type":"ClothingStore","SubType":"ClothingStore","Label":"'FoodJoint','ClothingStore','Entertainment','Female Adults','Male Adults'","Cluster":"1","SubCluster":"1","CLat_sub":"6.202049584","CLong_sub":"6.69486274","CityId":"103","UserId":"15","SubClusterFinal":"2"},"geometry":{"type":"Point","coordinates":[6.742422,6.194186]}},{"type":"Feature","properties":{"CityName":"Delta","CityType":"N","Name":"Coolest Unisex Boutique","Category":"O","Long":"6.7482218","Lat":"6.1797976","Type":"ClothingStore","SubType":"ClothingStore","Label":"'FoodJoint','ClothingStore','Entertainment','Female Adults','Male Adults'","Cluster":"1","SubCluster":"1","CLat_sub":"6.202049584","CLong_sub":"6.69486274","CityId":"103","UserId":"15","SubClusterFinal":"2"},"geometry":{"type":"Point","coordinates":[6.748222,6.179798]}},{"type":"Feature","properties":{"CityName":"Delta","CityType":"N","Name":"Iyalodek Hajia Lace","Category":"O","Long":"6.7509428","Lat":"6.1900268","Type":"ClothingStore","SubType":"ClothingStore","Label":"'FoodJoint','ClothingStore','Entertainment','Female Adults','Male Adults'","Cluster":"1","SubCluster":"1","CLat_sub":"6.202049584","CLong_sub":"6.69486274","CityId":"103","UserId":"15","SubClusterFinal":"2"},"geometry":{"type":"Point","coordinates":[6.750943,6.190027]}},{"type":"Feature","properties":{"CityName":"Delta","CityType":"N","Name":"Cee-Jay Boutique Designer","Category":"O","Long":"6.7391322","Lat":"6.1914831","Type":"ClothingStore","SubType":"ClothingStore","Label":"'FoodJoint','ClothingStore','Entertainment','Female Adults','Male Adults'","Cluster":"1","SubCluster":"1","CLat_sub":"6.202049584","CLong_sub":"6.69486274","CityId":"103","UserId":"15","SubClusterFinal":"2"},"geometry":{"type":"Point","coordinates":[6.739132,6.191483]}},{"type":"Feature","properties":{"CityName":"Delta","CityType":"N","Name":"Everything Cheche","Category":"O","Long":"6.7400368","Lat":"6.1763859","Type":"ClothingStore","SubType":"ClothingStore","Label":"'FoodJoint','ClothingStore','Entertainment','Female Adults','Male Adults'","Cluster":"1","SubCluster":"1","CLat_sub":"6.202049584","CLong_sub":"6.69486274","CityId":"103","UserId":"15","SubClusterFinal":"2"},"geometry":{"type":"Point","coordinates":[6.740037,6.176386]}},{"type":"Feature","properties":{"CityName":"Delta","CityType":"N","Name":"Grace essentials","Category":"O","Long":"6.7346532","Lat":"6.1915181","Type":"ClothingStore","SubType":"ClothingStore","Label":"'FoodJoint','ClothingStore','Entertainment','Female Adults','Male Adults'","Cluster":"1","SubCluster":"1","CLat_sub":"6.202049584","CLong_sub":"6.69486274","CityId":"103","UserId":"15","SubClusterFinal":"2"},"geometry":{"type":"Point","coordinates":[6.734653,6.191518]}},{"type":"Feature","properties":{"CityName":"Delta","CityType":"N","Name":"Thank God Boutique","Category":"O","Long":"6.7396252","Lat":"6.1959208","Type":"ClothingStore","SubType":"ClothingStore","Label":"'FoodJoint','ClothingStore','Entertainment','Female Adults','Male Adults'","Cluster":"1","SubCluster":"1","CLat_sub":"6.202049584","CLong_sub":"6.69486274","CityId":"103","UserId":"15","SubClusterFinal":"2"},"geometry":{"type":"Point","coordinates":[6.739625,6.195921]}},{"type":"Feature","properties":{"CityName":"Delta","CityType":"N","Name":"More Stitches Fashion Home","Category":"O","Long":"6.7372095","Lat":"6.1943022","Type":"ClothingStore","SubType":"ClothingStore","Label":"'FoodJoint','ClothingStore','Entertainment','Female Adults','Male Adults'","Cluster":"1","SubCluster":"1","CLat_sub":"6.202049584","CLong_sub":"6.69486274","CityId":"103","UserId":"15","SubClusterFinal":"2"},"geometry":{"type":"Point","coordinates":[6.737209,6.194302]}},{"type":"Feature","properties":{"CityName":"Delta","CityType":"N","Name":"Junecollectionz","Category":"O","Long":"6.1954364","Lat":"6.261962","Type":"ClothingStore","SubType":"ClothingStore","Label":"'FoodJoint','ClothingStore','Entertainment','Female Adults','Male Adults'","Cluster":"1","SubCluster":"2","CLat_sub":"6.252934727","CLong_sub":"6.259183161","CityId":"103","UserId":"15","SubClusterFinal":"1"},"geometry":{"type":"Point","coordinates":[6.195436,6.261962]}},{"type":"Feature","properties":{"CityName":"Delta","CityType":"N","Name":"Faith fashion Empire","Category":"O","Long":"6.2019087","Lat":"6.2553718","Type":"ClothingStore","SubType":"ClothingStore","Label":"'FoodJoint','ClothingStore','Entertainment','Female Adults','Male Adults'","Cluster":"1","SubCluster":"2","CLat_sub":"6.252934727","CLong_sub":"6.259183161","CityId":"103","UserId":"15","SubClusterFinal":"1"},"geometry":{"type":"Point","coordinates":[6.201909,6.255372]}},{"type":"Feature","properties":{"CityName":"Delta","CityType":"N","Name":"Tommy Stiches","Category":"O","Long":"6.1949216","Lat":"6.2590663","Type":"ClothingStore","SubType":"ClothingStore","Label":"'FoodJoint','ClothingStore','Entertainment','Female Adults','Male Adults'","Cluster":"1","SubCluster":"2","CLat_sub":"6.252934727","CLong_sub":"6.259183161","CityId":"103","UserId":"15","SubClusterFinal":"1"},"geometry":{"type":"Point","coordinates":[6.194922,6.259066]}},{"type":"Feature","properties":{"CityName":"Delta","CityType":"N","Name":"Double M Outfits","Category":"O","Long":"6.1934241","Lat":"6.2561158","Type":"ClothingStore","SubType":"ClothingStore","Label":"'FoodJoint','ClothingStore','Entertainment','Female Adults','Male Adults'","Cluster":"1","SubCluster":"2","CLat_sub":"6.252934727","CLong_sub":"6.259183161","CityId":"103","UserId":"15","SubClusterFinal":"1"},"geometry":{"type":"Point","coordinates":[6.193424,6.256116]}},{"type":"Feature","properties":{"CityName":"Delta","CityType":"N","Name":"Lamsyzumi Fashion Home","Category":"O","Long":"6.2002991","Lat":"6.2535285","Type":"ClothingStore","SubType":"ClothingStore","Label":"'FoodJoint','ClothingStore','Entertainment','Female Adults','Male Adults'","Cluster":"1","SubCluster":"2","CLat_sub":"6.252934727","CLong_sub":"6.259183161","CityId":"103","UserId":"15","SubClusterFinal":"1"},"geometry":{"type":"Point","coordinates":[6.200299,6.253528]}},{"type":"Feature","properties":{"CityName":"Delta","CityType":"N","Name":"Bless More Outfit","Category":"O","Long":"6.2057009","Lat":"6.2541433","Type":"ClothingStore","SubType":"ClothingStore","Label":"'FoodJoint','ClothingStore','Entertainment','Female Adults','Male Adults'","Cluster":"1","SubCluster":"2","CLat_sub":"6.252934727","CLong_sub":"6.259183161","CityId":"103","UserId":"15","SubClusterFinal":"1"},"geometry":{"type":"Point","coordinates":[6.205701,6.254143]}},{"type":"Feature","properties":{"CityName":"Delta","CityType":"N","Name":"De Luvzy Boutique","Category":"O","Long":"6.205701","Lat":"6.2541433","Type":"ClothingStore","SubType":"ClothingStore","Label":"'FoodJoint','ClothingStore','Entertainment','Female Adults','Male Adults'","Cluster":"1","SubCluster":"2","CLat_sub":"6.252934727","CLong_sub":"6.259183161","CityId":"103","UserId":"15","SubClusterFinal":"1"},"geometry":{"type":"Point","coordinates":[6.205701,6.254143]}},{"type":"Feature","properties":{"CityName":"Delta","CityType":"N","Name":"Emi_youngclothing","Category":"O","Long":"6.1949643","Lat":"6.2522893","Type":"ClothingStore","SubType":"ClothingStore","Label":"'FoodJoint','ClothingStore','Entertainment','Female Adults','Male Adults'","Cluster":"1","SubCluster":"2","CLat_sub":"6.252934727","CLong_sub":"6.259183161","CityId":"103","UserId":"15","SubClusterFinal":"1"},"geometry":{"type":"Point","coordinates":[6.194964,6.252289]}},{"type":"Feature","properties":{"CityName":"Delta","CityType":"N","Name":"Alpha plus wears","Category":"O","Long":"6.2057009","Lat":"6.2541433","Type":"ClothingStore","SubType":"ClothingStore","Label":"'FoodJoint','ClothingStore','Entertainment','Female Adults','Male Adults'","Cluster":"1","SubCluster":"2","CLat_sub":"6.252934727","CLong_sub":"6.259183161","CityId":"103","UserId":"15","SubClusterFinal":"1"},"geometry":{"type":"Point","coordinates":[6.205701,6.254143]}},{"type":"Feature","properties":{"CityName":"Delta","CityType":"N","Name":"zinny wears","Category":"O","Long":"6.2002991","Lat":"6.2535285","Type":"ClothingStore","SubType":"ClothingStore","Label":"'FoodJoint','ClothingStore','Entertainment','Female Adults','Male Adults'","Cluster":"1","SubCluster":"2","CLat_sub":"6.252934727","CLong_sub":"6.259183161","CityId":"103","UserId":"15","SubClusterFinal":"1"},"geometry":{"type":"Point","coordinates":[6.200299,6.253528]}},{"type":"Feature","properties":{"CityName":"Delta","CityType":"N","Name":"Mummy p.boutique","Category":"O","Long":"6.2057009","Lat":"6.2541433","Type":"ClothingStore","SubType":"ClothingStore","Label":"'FoodJoint','ClothingStore','Entertainment','Female Adults','Male Adults'","Cluster":"1","SubCluster":"2","CLat_sub":"6.252934727","CLong_sub":"6.259183161","CityId":"103","UserId":"15","SubClusterFinal":"1"},"geometry":{"type":"Point","coordinates":[6.205701,6.254143]}},{"type":"Feature","properties":{"CityName":"Delta","CityType":"N","Name":"Em fashion shops","Category":"O","Long":"6.1918957","Lat":"6.2580323","Type":"ClothingStore","SubType":"ClothingStore","Label":"'FoodJoint','ClothingStore','Entertainment','Female Adults','Male Adults'","Cluster":"1","SubCluster":"2","CLat_sub":"6.252934727","CLong_sub":"6.259183161","CityId":"103","UserId":"15","SubClusterFinal":"1"},"geometry":{"type":"Point","coordinates":[6.191896,6.258032]}},{"type":"Feature","properties":{"CityName":"Delta","CityType":"N","Name":"Benson Boutique","Category":"O","Long":"6.1924749","Lat":"6.2541794","Type":"ClothingStore","SubType":"ClothingStore","Label":"'FoodJoint','ClothingStore','Entertainment','Female Adults','Male Adults'","Cluster":"1","SubCluster":"2","CLat_sub":"6.252934727","CLong_sub":"6.259183161","CityId":"103","UserId":"15","SubClusterFinal":"1"},"geometry":{"type":"Point","coordinates":[6.192475,6.254179]}},{"type":"Feature","properties":{"CityName":"Delta","CityType":"N","Name":"Onyele Fashion Designer","Category":"O","Long":"6.205701","Lat":"6.2541433","Type":"ClothingStore","SubType":"ClothingStore","Label":"'FoodJoint','ClothingStore','Entertainment','Female Adults','Male Adults'","Cluster":"1","SubCluster":"2","CLat_sub":"6.252934727","CLong_sub":"6.259183161","CityId":"103","UserId":"15","SubClusterFinal":"1"},"geometry":{"type":"Point","coordinates":[6.205701,6.254143]}},{"type":"Feature","properties":{"CityName":"Delta","CityType":"N","Name":"BLIZZBERRY LUXURY WEARS","Category":"O","Long":"6.1948243","Lat":"6.2560787","Type":"ClothingStore","SubType":"ClothingStore","Label":"'FoodJoint','ClothingStore','Entertainment','Female Adults','Male Adults'","Cluster":"1","SubCluster":"2","CLat_sub":"6.252934727","CLong_sub":"6.259183161","CityId":"103","UserId":"15","SubClusterFinal":"1"},"geometry":{"type":"Point","coordinates":[6.194824,6.256079]}},{"type":"Feature","properties":{"CityName":"Delta","CityType":"N","Name":"N.K Stitches Home Of Fashion","Category":"O","Long":"6.2057009","Lat":"6.2541433","Type":"ClothingStore","SubType":"ClothingStore","Label":"'FoodJoint','ClothingStore','Entertainment','Female Adults','Male Adults'","Cluster":"1","SubCluster":"2","CLat_sub":"6.252934727","CLong_sub":"6.259183161","CityId":"103","UserId":"15","SubClusterFinal":"1"},"geometry":{"type":"Point","coordinates":[6.205701,6.254143]}},{"type":"Feature","properties":{"CityName":"Delta","CityType":"N","Name":"Nellix 4 Real Boutique","Category":"O","Long":"6.1973177","Lat":"6.2532301","Type":"ClothingStore","SubType":"ClothingStore","Label":"'FoodJoint','ClothingStore','Entertainment','Female Adults','Male Adults'","Cluster":"1","SubCluster":"2","CLat_sub":"6.252934727","CLong_sub":"6.259183161","CityId":"103","UserId":"15","SubClusterFinal":"1"},"geometry":{"type":"Point","coordinates":[6.197318,6.25323]}},{"type":"Feature","properties":{"CityName":"Delta","CityType":"N","Name":"Humble Fashion Home","Category":"O","Long":"6.1910859","Lat":"6.2539026","Type":"ClothingStore","SubType":"ClothingStore","Label":"'FoodJoint','ClothingStore','Entertainment','Female Adults','Male Adults'","Cluster":"1","SubCluster":"2","CLat_sub":"6.252934727","CLong_sub":"6.259183161","CityId":"103","UserId":"15","SubClusterFinal":"1"},"geometry":{"type":"Point","coordinates":[6.191086,6.253903]}},{"type":"Feature","properties":{"CityName":"Delta","CityType":"N","Name":"Glitter shopper men's wear","Category":"O","Long":"6.433233","Lat":"5.7015563","Type":"ClothingStore","SubType":"ClothingStore","Label":"'FoodJoint','ClothingStore','Entertainment','Female Adults','Male Adults'","Cluster":"1","SubCluster":"3","CLat_sub":"5.729697858","CLong_sub":"6.415706043","CityId":"103","UserId":"15","SubClusterFinal":"3"},"geometry":{"type":"Point","coordinates":[6.433233,5.701556]}},{"type":"Feature","properties":{"CityName":"Delta","CityType":"N","Name":"Austino fashion city shop","Category":"O","Long":"6.433233","Lat":"5.7015563","Type":"ClothingStore","SubType":"ClothingStore","Label":"'FoodJoint','ClothingStore','Entertainment','Female Adults','Male Adults'","Cluster":"1","SubCluster":"3","CLat_sub":"5.729697858","CLong_sub":"6.415706043","CityId":"103","UserId":"15","SubClusterFinal":"3"},"geometry":{"type":"Point","coordinates":[6.433233,5.701556]}},{"type":"Feature","properties":{"CityName":"Delta","CityType":"N","Name":"UP NEPA BOUTIQUE","Category":"O","Long":"6.4210368","Lat":"5.6916873","Type":"ClothingStore","SubType":"ClothingStore","Label":"'FoodJoint','ClothingStore','Entertainment','Female Adults','Male Adults'","Cluster":"1","SubCluster":"3","CLat_sub":"5.729697858","CLong_sub":"6.415706043","CityId":"103","UserId":"15","SubClusterFinal":"3"},"geometry":{"type":"Point","coordinates":[6.421037,5.691687]}},{"type":"Feature","properties":{"CityName":"Delta","CityType":"N","Name":"Don Luxury World Darzil Collections Succy Corner","Category":"O","Long":"6.4218091","Lat":"5.7198409","Type":"ClothingStore","SubType":"ClothingStore","Label":"'FoodJoint','ClothingStore','Entertainment','Female Adults','Male Adults'","Cluster":"1","SubCluster":"3","CLat_sub":"5.729697858","CLong_sub":"6.415706043","CityId":"103","UserId":"15","SubClusterFinal":"3"},"geometry":{"type":"Point","coordinates":[6.421809,5.719841]}},{"type":"Feature","properties":{"CityName":"Delta","CityType":"N","Name":"BUCATY COLLECTIONS","Category":"O","Long":"6.433233","Lat":"5.7015563","Type":"ClothingStore","SubType":"ClothingStore","Label":"'FoodJoint','ClothingStore','Entertainment','Female Adults','Male Adults'","Cluster":"1","SubCluster":"3","CLat_sub":"5.729697858","CLong_sub":"6.415706043","CityId":"103","UserId":"15","SubClusterFinal":"3"},"geometry":{"type":"Point","coordinates":[6.433233,5.701556]}},{"type":"Feature","properties":{"CityName":"Delta","CityType":"N","Name":"Kamma kiddies closet","Category":"O","Long":"6.4212512","Lat":"5.6906521","Type":"ClothingStore","SubType":"ClothingStore","Label":"'FoodJoint','ClothingStore','Entertainment','Female Adults','Male Adults'","Cluster":"1","SubCluster":"3","CLat_sub":"5.729697858","CLong_sub":"6.415706043","CityId":"103","UserId":"15","SubClusterFinal":"3"},"geometry":{"type":"Point","coordinates":[6.421251,5.690652]}},{"type":"Feature","properties":{"CityName":"Delta","CityType":"N","Name":"B. Best Kiddies","Category":"O","Long":"6.4316286","Lat":"5.6942901","Type":"ClothingStore","SubType":"ClothingStore","Label":"'FoodJoint','ClothingStore','Entertainment','Female Adults','Male Adults'","Cluster":"1","SubCluster":"3","CLat_sub":"5.729697858","CLong_sub":"6.415706043","CityId":"103","UserId":"15","SubClusterFinal":"3"},"geometry":{"type":"Point","coordinates":[6.431629,5.69429]}},{"type":"Feature","properties":{"CityName":"Delta","CityType":"N","Name":"Only God collection shop","Category":"O","Long":"6.433233","Lat":"5.7015563","Type":"ClothingStore","SubType":"ClothingStore","Label":"'FoodJoint','ClothingStore','Entertainment','Female Adults','Male Adults'","Cluster":"1","SubCluster":"3","CLat_sub":"5.729697858","CLong_sub":"6.415706043","CityId":"103","UserId":"15","SubClusterFinal":"3"},"geometry":{"type":"Point","coordinates":[6.433233,5.701556]}},{"type":"Feature","properties":{"CityName":"Delta","CityType":"N","Name":"Akatex fashion trends shop","Category":"O","Long":"6.433233","Lat":"5.7015563","Type":"ClothingStore","SubType":"ClothingStore","Label":"'FoodJoint','ClothingStore','Entertainment','Female Adults','Male Adults'","Cluster":"1","SubCluster":"3","CLat_sub":"5.729697858","CLong_sub":"6.415706043","CityId":"103","UserId":"15","SubClusterFinal":"3"},"geometry":{"type":"Point","coordinates":[6.433233,5.701556]}},{"type":"Feature","properties":{"CityName":"Delta","CityType":"N","Name":"Pero world best boutique","Category":"O","Long":"6.433233","Lat":"5.7015563","Type":"ClothingStore","SubType":"ClothingStore","Label":"'FoodJoint','ClothingStore','Entertainment','Female Adults','Male Adults'","Cluster":"1","SubCluster":"3","CLat_sub":"5.729697858","CLong_sub":"6.415706043","CityId":"103","UserId":"15","SubClusterFinal":"3"},"geometry":{"type":"Point","coordinates":[6.433233,5.701556]}},{"type":"Feature","properties":{"CityName":"Delta","CityType":"N","Name":"Glitters boutique","Category":"O","Long":"6.433233","Lat":"5.7015563","Type":"ClothingStore","SubType":"ClothingStore","Label":"'FoodJoint','ClothingStore','Entertainment','Female Adults','Male Adults'","Cluster":"1","SubCluster":"3","CLat_sub":"5.729697858","CLong_sub":"6.415706043","CityId":"103","UserId":"15","SubClusterFinal":"3"},"geometry":{"type":"Point","coordinates":[6.433233,5.701556]}},{"type":"Feature","properties":{"CityName":"Delta","CityType":"N","Name":"Kenzie's collection","Category":"O","Long":"6.4129398","Lat":"5.6948519","Type":"ClothingStore","SubType":"ClothingStore","Label":"'FoodJoint','ClothingStore','Entertainment','Female Adults','Male Adults'","Cluster":"1","SubCluster":"3","CLat_sub":"5.729697858","CLong_sub":"6.415706043","CityId":"103","UserId":"15","SubClusterFinal":"3"},"geometry":{"type":"Point","coordinates":[6.41294,5.694852]}},{"type":"Feature","properties":{"CityName":"Delta","CityType":"N","Name":"David Dees Ventures","Category":"O","Long":"6.3938265","Lat":"5.7237941","Type":"ClothingStore","SubType":"ClothingStore","Label":"'FoodJoint','ClothingStore','Entertainment','Female Adults','Male Adults'","Cluster":"1","SubCluster":"3","CLat_sub":"5.729697858","CLong_sub":"6.415706043","CityId":"103","UserId":"15","SubClusterFinal":"3"},"geometry":{"type":"Point","coordinates":[6.393827,5.723794]}},{"type":"Feature","properties":{"CityName":"Delta","CityType":"N","Name":"ADONAI COLLECTION","Category":"O","Long":"6.4276461","Lat":"5.6901348","Type":"ClothingStore","SubType":"ClothingStore","Label":"'FoodJoint','ClothingStore','Entertainment','Female Adults','Male Adults'","Cluster":"1","SubCluster":"3","CLat_sub":"5.729697858","CLong_sub":"6.415706043","CityId":"103","UserId":"15","SubClusterFinal":"3"},"geometry":{"type":"Point","coordinates":[6.427646,5.690135]}},{"type":"Feature","properties":{"CityName":"Delta","CityType":"N","Name":"CUBANA DE GREAT CONCEPT","Category":"O","Long":"6.4361824","Lat":"5.7173397","Type":"ClothingStore","SubType":"ClothingStore","Label":"'FoodJoint','ClothingStore','Entertainment','Female Adults','Male Adults'","Cluster":"1","SubCluster":"3","CLat_sub":"5.729697858","CLong_sub":"6.415706043","CityId":"103","UserId":"15","SubClusterFinal":"3"},"geometry":{"type":"Point","coordinates":[6.436182,5.71734]}},{"type":"Feature","properties":{"CityName":"Delta","CityType":"N","Name":"Godwin exclusive shop","Category":"O","Long":"6.433233","Lat":"5.7015563","Type":"ClothingStore","SubType":"ClothingStore","Label":"'FoodJoint','ClothingStore','Entertainment','Female Adults','Male Adults'","Cluster":"1","SubCluster":"3","CLat_sub":"5.729697858","CLong_sub":"6.415706043","CityId":"103","UserId":"15","SubClusterFinal":"3"},"geometry":{"type":"Point","coordinates":[6.433233,5.701556]}},{"type":"Feature","properties":{"CityName":"Delta","CityType":"N","Name":"VENIDAS BOUTIQUE","Category":"O","Long":"6.7305981","Lat":"6.1714917","Type":"ClothingStore","SubType":"ClothingStore","Label":"'FoodJoint','ClothingStore','Entertainment','Female Adults','Male Adults'","Cluster":"1","SubCluster":"1","CLat_sub":"6.202049584","CLong_sub":"6.69486274","CityId":"103","UserId":"15","SubClusterFinal":"2"},"geometry":{"type":"Point","coordinates":[6.730598,6.171492]}},{"type":"Feature","properties":{"CityName":"Delta","CityType":"N","Name":"yetty beauty International fashion designer","Category":"O","Long":"6.7346357","Lat":"6.1676581","Type":"ClothingStore","SubType":"ClothingStore","Label":"'FoodJoint','ClothingStore','Entertainment','Female Adults','Male Adults'","Cluster":"1","SubCluster":"1","CLat_sub":"6.202049584","CLong_sub":"6.69486274","CityId":"103","UserId":"15","SubClusterFinal":"2"},"geometry":{"type":"Point","coordinates":[6.734636,6.167658]}},{"type":"Feature","properties":{"CityName":"Delta","CityType":"N","Name":"Umu apa Quarter","Category":"O","Long":"6.7333563","Lat":"6.1685126","Type":"ClothingStore","SubType":"ClothingStore","Label":"'FoodJoint','ClothingStore','Entertainment','Female Adults','Male Adults'","Cluster":"1","SubCluster":"1","CLat_sub":"6.202049584","CLong_sub":"6.69486274","CityId":"103","UserId":"15","SubClusterFinal":"2"},"geometry":{"type":"Point","coordinates":[6.733356,6.168513]}},{"type":"Feature","properties":{"CityName":"Delta","CityType":"N","Name":"Linda Queen Boutique","Category":"O","Long":"6.7390449","Lat":"6.1682083","Type":"ClothingStore","SubType":"ClothingStore","Label":"'FoodJoint','ClothingStore','Entertainment','Female Adults','Male Adults'","Cluster":"1","SubCluster":"1","CLat_sub":"6.202049584","CLong_sub":"6.69486274","CityId":"103","UserId":"15","SubClusterFinal":"2"},"geometry":{"type":"Point","coordinates":[6.739045,6.168208]}},{"type":"Feature","properties":{"CityName":"Delta","CityType":"N","Name":"Winner's Men's under Wears and Laundry Service","Category":"O","Long":"6.730048","Lat":"6.1763629","Type":"ClothingStore","SubType":"ClothingStore","Label":"'FoodJoint','ClothingStore','Entertainment','Female Adults','Male Adults'","Cluster":"1","SubCluster":"1","CLat_sub":"6.202049584","CLong_sub":"6.69486274","CityId":"103","UserId":"15","SubClusterFinal":"2"},"geometry":{"type":"Point","coordinates":[6.730048,6.176363]}},{"type":"Feature","properties":{"CityName":"Delta","CityType":"N","Name":"ES. COLLECTIONS","Category":"O","Long":"6.732189","Lat":"6.1783864","Type":"ClothingStore","SubType":"ClothingStore","Label":"'FoodJoint','ClothingStore','Entertainment','Female Adults','Male Adults'","Cluster":"1","SubCluster":"1","CLat_sub":"6.202049584","CLong_sub":"6.69486274","CityId":"103","UserId":"15","SubClusterFinal":"2"},"geometry":{"type":"Point","coordinates":[6.732189,6.178386]}},{"type":"Feature","properties":{"CityName":"Delta","CityType":"N","Name":"Little fit","Category":"O","Long":"6.7307706","Lat":"6.1753099","Type":"ClothingStore","SubType":"ClothingStore","Label":"'FoodJoint','ClothingStore','Entertainment','Female Adults','Male Adults'","Cluster":"1","SubCluster":"1","CLat_sub":"6.202049584","CLong_sub":"6.69486274","CityId":"103","UserId":"15","SubClusterFinal":"2"},"geometry":{"type":"Point","coordinates":[6.730771,6.17531]}},{"type":"Feature","properties":{"CityName":"Delta","CityType":"N","Name":"Tilda's collection","Category":"O","Long":"6.7385812","Lat":"6.1627107","Type":"ClothingStore","SubType":"ClothingStore","Label":"'FoodJoint','ClothingStore','Entertainment','Female Adults','Male Adults'","Cluster":"1","SubCluster":"1","CLat_sub":"6.202049584","CLong_sub":"6.69486274","CityId":"103","UserId":"15","SubClusterFinal":"2"},"geometry":{"type":"Point","coordinates":[6.738581,6.162711]}},{"type":"Feature","properties":{"CityName":"Delta","CityType":"N","Name":"╪º┘ä╪│╪¬ ╪¿╪¬╪º╪╣ ╪º┘ä┘é┘à╪º╪┤","Category":"O","Long":"6.7362036","Lat":"6.164633","Type":"ClothingStore","SubType":"ClothingStore","Label":"'FoodJoint','ClothingStore','Entertainment','Female Adults','Male Adults'","Cluster":"1","SubCluster":"1","CLat_sub":"6.202049584","CLong_sub":"6.69486274","CityId":"103","UserId":"15","SubClusterFinal":"2"},"geometry":{"type":"Point","coordinates":[6.736204,6.164633]}},{"type":"Feature","properties":{"CityName":"Delta","CityType":"N","Name":"G&G Collections","Category":"O","Long":"6.7301293","Lat":"6.180162","Type":"ClothingStore","SubType":"ClothingStore","Label":"'FoodJoint','ClothingStore','Entertainment','Female Adults','Male Adults'","Cluster":"1","SubCluster":"1","CLat_sub":"6.202049584","CLong_sub":"6.69486274","CityId":"103","UserId":"15","SubClusterFinal":"2"},"geometry":{"type":"Point","coordinates":[6.730129,6.180162]}},{"type":"Feature","properties":{"CityName":"Delta","CityType":"N","Name":"oma fashion concept","Category":"O","Long":"6.7301293","Lat":"6.180162","Type":"ClothingStore","SubType":"ClothingStore","Label":"'FoodJoint','ClothingStore','Entertainment','Female Adults','Male Adults'","Cluster":"1","SubCluster":"1","CLat_sub":"6.202049584","CLong_sub":"6.69486274","CityId":"103","UserId":"15","SubClusterFinal":"2"},"geometry":{"type":"Point","coordinates":[6.730129,6.180162]}},{"type":"Feature","properties":{"CityName":"Delta","CityType":"N","Name":"Gee Stitches","Category":"O","Long":"6.7301293","Lat":"6.180162","Type":"ClothingStore","SubType":"ClothingStore","Label":"'FoodJoint','ClothingStore','Entertainment','Female Adults','Male Adults'","Cluster":"1","SubCluster":"1","CLat_sub":"6.202049584","CLong_sub":"6.69486274","CityId":"103","UserId":"15","SubClusterFinal":"2"},"geometry":{"type":"Point","coordinates":[6.730129,6.180162]}},{"type":"Feature","properties":{"CityName":"Delta","CityType":"N","Name":"Katle's Clothing","Category":"O","Long":"6.7218141","Lat":"6.1947942","Type":"ClothingStore","SubType":"ClothingStore","Label":"'FoodJoint','ClothingStore','Entertainment','Female Adults','Male Adults'","Cluster":"1","SubCluster":"1","CLat_sub":"6.202049584","CLong_sub":"6.69486274","CityId":"103","UserId":"15","SubClusterFinal":"2"},"geometry":{"type":"Point","coordinates":[6.721814,6.194794]}},{"type":"Feature","properties":{"CityName":"Delta","CityType":"N","Name":"Rossyluv unisex apparel","Category":"O","Long":"6.7315617","Lat":"6.1771758","Type":"ClothingStore","SubType":"ClothingStore","Label":"'FoodJoint','ClothingStore','Entertainment','Female Adults','Male Adults'","Cluster":"1","SubCluster":"1","CLat_sub":"6.202049584","CLong_sub":"6.69486274","CityId":"103","UserId":"15","SubClusterFinal":"2"},"geometry":{"type":"Point","coordinates":[6.731562,6.177176]}},{"type":"Feature","properties":{"CityName":"Delta","CityType":"N","Name":"Denco Fashion Collection","Category":"O","Long":"6.7365532","Lat":"6.1814184","Type":"ClothingStore","SubType":"ClothingStore","Label":"'FoodJoint','ClothingStore','Entertainment','Female Adults','Male Adults'","Cluster":"1","SubCluster":"1","CLat_sub":"6.202049584","CLong_sub":"6.69486274","CityId":"103","UserId":"15","SubClusterFinal":"2"},"geometry":{"type":"Point","coordinates":[6.736553,6.181418]}},{"type":"Feature","properties":{"CityName":"Delta","CityType":"N","Name":"Defantacy","Category":"O","Long":"6.7375996","Lat":"6.1983021","Type":"ClothingStore","SubType":"ClothingStore","Label":"'FoodJoint','ClothingStore','Entertainment','Female Adults','Male Adults'","Cluster":"1","SubCluster":"1","CLat_sub":"6.202049584","CLong_sub":"6.69486274","CityId":"103","UserId":"15","SubClusterFinal":"2"},"geometry":{"type":"Point","coordinates":[6.7376,6.198302]}},{"type":"Feature","properties":{"CityName":"Delta","CityType":"N","Name":"BUKARIS CLOTHING STORES","Category":"O","Long":"6.7333531","Lat":"6.2017009","Type":"ClothingStore","SubType":"ClothingStore","Label":"'FoodJoint','ClothingStore','Entertainment','Female Adults','Male Adults'","Cluster":"1","SubCluster":"1","CLat_sub":"6.202049584","CLong_sub":"6.69486274","CityId":"103","UserId":"15","SubClusterFinal":"2"},"geometry":{"type":"Point","coordinates":[6.733353,6.201701]}},{"type":"Feature","properties":{"CityName":"Delta","CityType":"N","Name":"Nwaiyene Enterprises - Clothing","Category":"O","Long":"6.7350988","Lat":"6.2015954","Type":"ClothingStore","SubType":"ClothingStore","Label":"'FoodJoint','ClothingStore','Entertainment','Female Adults','Male Adults'","Cluster":"1","SubCluster":"1","CLat_sub":"6.202049584","CLong_sub":"6.69486274","CityId":"103","UserId":"15","SubClusterFinal":"2"},"geometry":{"type":"Point","coordinates":[6.735099,6.201595]}},{"type":"Feature","properties":{"CityName":"Delta","CityType":"N","Name":"Bless Collections","Category":"O","Long":"6.7411932","Lat":"6.1946842","Type":"ClothingStore","SubType":"ClothingStore","Label":"'FoodJoint','ClothingStore','Entertainment','Female Adults','Male Adults'","Cluster":"1","SubCluster":"1","CLat_sub":"6.202049584","CLong_sub":"6.69486274","CityId":"103","UserId":"15","SubClusterFinal":"2"},"geometry":{"type":"Point","coordinates":[6.741193,6.194684]}},{"type":"Feature","properties":{"CityName":"Delta","CityType":"N","Name":"FASHION SENSE","Category":"O","Long":"6.7311477","Lat":"6.1995204","Type":"ClothingStore","SubType":"ClothingStore","Label":"'FoodJoint','ClothingStore','Entertainment','Female Adults','Male Adults'","Cluster":"1","SubCluster":"1","CLat_sub":"6.202049584","CLong_sub":"6.69486274","CityId":"103","UserId":"15","SubClusterFinal":"2"},"geometry":{"type":"Point","coordinates":[6.731148,6.19952]}},{"type":"Feature","properties":{"CityName":"Delta","CityType":"N","Name":"Triple C's Collections","Category":"O","Long":"6.7335396","Lat":"6.2015341","Type":"ClothingStore","SubType":"ClothingStore","Label":"'FoodJoint','ClothingStore','Entertainment','Female Adults','Male Adults'","Cluster":"1","SubCluster":"1","CLat_sub":"6.202049584","CLong_sub":"6.69486274","CityId":"103","UserId":"15","SubClusterFinal":"2"},"geometry":{"type":"Point","coordinates":[6.73354,6.201534]}},{"type":"Feature","properties":{"CityName":"Delta","CityType":"N","Name":"Unravel Wears","Category":"O","Long":"6.7311477","Lat":"6.1995204","Type":"ClothingStore","SubType":"ClothingStore","Label":"'FoodJoint','ClothingStore','Entertainment','Female Adults','Male Adults'","Cluster":"1","SubCluster":"1","CLat_sub":"6.202049584","CLong_sub":"6.69486274","CityId":"103","UserId":"15","SubClusterFinal":"2"},"geometry":{"type":"Point","coordinates":[6.731148,6.19952]}},{"type":"Feature","properties":{"CityName":"Delta","CityType":"N","Name":"Perfect Clothiers Unisex","Category":"O","Long":"6.7339481","Lat":"6.1999951","Type":"ClothingStore","SubType":"ClothingStore","Label":"'FoodJoint','ClothingStore','Entertainment','Female Adults','Male Adults'","Cluster":"1","SubCluster":"1","CLat_sub":"6.202049584","CLong_sub":"6.69486274","CityId":"103","UserId":"15","SubClusterFinal":"2"},"geometry":{"type":"Point","coordinates":[6.733948,6.199995]}},{"type":"Feature","properties":{"CityName":"Delta","CityType":"N","Name":"Small King Collections","Category":"O","Long":"6.734325","Lat":"6.2003674","Type":"ClothingStore","SubType":"ClothingStore","Label":"'FoodJoint','ClothingStore','Entertainment','Female Adults','Male Adults'","Cluster":"1","SubCluster":"1","CLat_sub":"6.202049584","CLong_sub":"6.69486274","CityId":"103","UserId":"15","SubClusterFinal":"2"},"geometry":{"type":"Point","coordinates":[6.734325,6.200367]}},{"type":"Feature","properties":{"CityName":"Delta","CityType":"N","Name":"Okpam Casuals","Category":"O","Long":"6.7328759","Lat":"6.1992006","Type":"ClothingStore","SubType":"ClothingStore","Label":"'FoodJoint','ClothingStore','Entertainment','Female Adults','Male Adults'","Cluster":"1","SubCluster":"1","CLat_sub":"6.202049584","CLong_sub":"6.69486274","CityId":"103","UserId":"15","SubClusterFinal":"2"},"geometry":{"type":"Point","coordinates":[6.732876,6.199201]}},{"type":"Feature","properties":{"CityName":"Delta","CityType":"N","Name":"Csquare Fashion House","Category":"O","Long":"6.7319418","Lat":"6.1967167","Type":"ClothingStore","SubType":"ClothingStore","Label":"'FoodJoint','ClothingStore','Entertainment','Female Adults','Male Adults'","Cluster":"1","SubCluster":"1","CLat_sub":"6.202049584","CLong_sub":"6.69486274","CityId":"103","UserId":"15","SubClusterFinal":"2"},"geometry":{"type":"Point","coordinates":[6.731942,6.196717]}},{"type":"Feature","properties":{"CityName":"Delta","CityType":"N","Name":"Silver wears","Category":"O","Long":"6.1637306","Lat":"6.2669055","Type":"ClothingStore","SubType":"ClothingStore","Label":"'FoodJoint','ClothingStore','Entertainment','Female Adults','Male Adults'","Cluster":"1","SubCluster":"2","CLat_sub":"6.252934727","CLong_sub":"6.259183161","CityId":"103","UserId":"15","SubClusterFinal":"1"},"geometry":{"type":"Point","coordinates":[6.163731,6.266906]}},{"type":"Feature","properties":{"CityName":"Delta","CityType":"N","Name":"Kcee Fashion Home","Category":"O","Long":"6.1627358","Lat":"6.2676413","Type":"ClothingStore","SubType":"ClothingStore","Label":"'FoodJoint','ClothingStore','Entertainment','Female Adults','Male Adults'","Cluster":"1","SubCluster":"2","CLat_sub":"6.252934727","CLong_sub":"6.259183161","CityId":"103","UserId":"15","SubClusterFinal":"1"},"geometry":{"type":"Point","coordinates":[6.162736,6.267641]}},{"type":"Feature","properties":{"CityName":"Delta","CityType":"N","Name":"DeeLic Emporium","Category":"O","Long":"6.1494752","Lat":"6.2675784","Type":"ClothingStore","SubType":"ClothingStore","Label":"'FoodJoint','ClothingStore','Entertainment','Female Adults','Male Adults'","Cluster":"1","SubCluster":"2","CLat_sub":"6.252934727","CLong_sub":"6.259183161","CityId":"103","UserId":"15","SubClusterFinal":"1"},"geometry":{"type":"Point","coordinates":[6.149475,6.267578]}},{"type":"Feature","properties":{"CityName":"Delta","CityType":"N","Name":"ChristyΓÇÖs Empire","Category":"O","Long":"6.1890433","Lat":"6.2720481","Type":"ClothingStore","SubType":"ClothingStore","Label":"'FoodJoint','ClothingStore','Entertainment','Female Adults','Male Adults'","Cluster":"1","SubCluster":"2","CLat_sub":"6.252934727","CLong_sub":"6.259183161","CityId":"103","UserId":"15","SubClusterFinal":"1"},"geometry":{"type":"Point","coordinates":[6.189043,6.272048]}},{"type":"Feature","properties":{"CityName":"Delta","CityType":"N","Name":"Miko Collection","Category":"O","Long":"6.163997","Lat":"6.2678528","Type":"ClothingStore","SubType":"ClothingStore","Label":"'FoodJoint','ClothingStore','Entertainment','Female Adults','Male Adults'","Cluster":"1","SubCluster":"2","CLat_sub":"6.252934727","CLong_sub":"6.259183161","CityId":"103","UserId":"15","SubClusterFinal":"1"},"geometry":{"type":"Point","coordinates":[6.163997,6.267853]}},{"type":"Feature","properties":{"CityName":"Delta","CityType":"N","Name":"Em Marvin Store","Category":"O","Long":"6.1918269","Lat":"6.2579825","Type":"ClothingStore","SubType":"ClothingStore","Label":"'FoodJoint','ClothingStore','Entertainment','Female Adults','Male Adults'","Cluster":"1","SubCluster":"2","CLat_sub":"6.252934727","CLong_sub":"6.259183161","CityId":"103","UserId":"15","SubClusterFinal":"1"},"geometry":{"type":"Point","coordinates":[6.191827,6.257982]}},{"type":"Feature","properties":{"CityName":"Delta","CityType":"N","Name":"Ceecee luxury Wears","Category":"O","Long":"6.7311246","Lat":"6.1816336","Type":"ClothingStore","SubType":"ClothingStore","Label":"'FoodJoint','ClothingStore','Entertainment','Female Adults','Male Adults'","Cluster":"1","SubCluster":"1","CLat_sub":"6.202049584","CLong_sub":"6.69486274","CityId":"103","UserId":"15","SubClusterFinal":"2"},"geometry":{"type":"Point","coordinates":[6.731125,6.181634]}},{"type":"Feature","properties":{"CityName":"Delta","CityType":"N","Name":"Double J Brands","Category":"O","Long":"6.727543","Lat":"6.1828955","Type":"ClothingStore","SubType":"ClothingStore","Label":"'FoodJoint','ClothingStore','Entertainment','Female Adults','Male Adults'","Cluster":"1","SubCluster":"1","CLat_sub":"6.202049584","CLong_sub":"6.69486274","CityId":"103","UserId":"15","SubClusterFinal":"2"},"geometry":{"type":"Point","coordinates":[6.727543,6.182895]}},{"type":"Feature","properties":{"CityName":"Delta","CityType":"N","Name":"Kossy closet","Category":"O","Long":"6.7333114","Lat":"6.1918195","Type":"ClothingStore","SubType":"ClothingStore","Label":"'FoodJoint','ClothingStore','Entertainment','Female Adults','Male Adults'","Cluster":"1","SubCluster":"1","CLat_sub":"6.202049584","CLong_sub":"6.69486274","CityId":"103","UserId":"15","SubClusterFinal":"2"},"geometry":{"type":"Point","coordinates":[6.733311,6.19182]}},{"type":"Feature","properties":{"CityName":"Delta","CityType":"N","Name":"God Is Able Boutique","Category":"O","Long":"6.7367404","Lat":"6.1893198","Type":"ClothingStore","SubType":"ClothingStore","Label":"'FoodJoint','ClothingStore','Entertainment','Female Adults','Male Adults'","Cluster":"1","SubCluster":"1","CLat_sub":"6.202049584","CLong_sub":"6.69486274","CityId":"103","UserId":"15","SubClusterFinal":"2"},"geometry":{"type":"Point","coordinates":[6.73674,6.18932]}},{"type":"Feature","properties":{"CityName":"Delta","CityType":"N","Name":"C & E GODSGIFT FASHION BASE","Category":"O","Long":"6.7283413","Lat":"6.191334","Type":"ClothingStore","SubType":"ClothingStore","Label":"'FoodJoint','ClothingStore','Entertainment','Female Adults','Male Adults'","Cluster":"1","SubCluster":"1","CLat_sub":"6.202049584","CLong_sub":"6.69486274","CityId":"103","UserId":"15","SubClusterFinal":"2"},"geometry":{"type":"Point","coordinates":[6.728341,6.191334]}},{"type":"Feature","properties":{"CityName":"Delta","CityType":"N","Name":"The Luxury Brand","Category":"O","Long":"6.7276189","Lat":"6.1824426","Type":"ClothingStore","SubType":"ClothingStore","Label":"'FoodJoint','ClothingStore','Entertainment','Female Adults','Male Adults'","Cluster":"1","SubCluster":"1","CLat_sub":"6.202049584","CLong_sub":"6.69486274","CityId":"103","UserId":"15","SubClusterFinal":"2"},"geometry":{"type":"Point","coordinates":[6.727619,6.182443]}},{"type":"Feature","properties":{"CityName":"Delta","CityType":"N","Name":"De Kay Luxury Hub","Category":"O","Long":"6.7310391","Lat":"6.1815446","Type":"ClothingStore","SubType":"ClothingStore","Label":"'FoodJoint','ClothingStore','Entertainment','Female Adults','Male Adults'","Cluster":"1","SubCluster":"1","CLat_sub":"6.202049584","CLong_sub":"6.69486274","CityId":"103","UserId":"15","SubClusterFinal":"2"},"geometry":{"type":"Point","coordinates":[6.731039,6.181545]}},{"type":"Feature","properties":{"CityName":"Delta","CityType":"N","Name":"Ami Collectoin","Category":"O","Long":"6.4221472","Lat":"5.6872911","Type":"ClothingStore","SubType":"ClothingStore","Label":"'FoodJoint','ClothingStore','Entertainment','Female Adults','Male Adults'","Cluster":"1","SubCluster":"3","CLat_sub":"5.729697858","CLong_sub":"6.415706043","CityId":"103","UserId":"15","SubClusterFinal":"3"},"geometry":{"type":"Point","coordinates":[6.422147,5.687291]}},{"type":"Feature","properties":{"CityName":"Delta","CityType":"N","Name":"Nelson Gold boutique","Category":"O","Long":"6.433233","Lat":"5.7015563","Type":"ClothingStore","SubType":"ClothingStore","Label":"'FoodJoint','ClothingStore','Entertainment','Female Adults','Male Adults'","Cluster":"1","SubCluster":"3","CLat_sub":"5.729697858","CLong_sub":"6.415706043","CityId":"103","UserId":"15","SubClusterFinal":"3"},"geometry":{"type":"Point","coordinates":[6.433233,5.701556]}},{"type":"Feature","properties":{"CityName":"Delta","CityType":"N","Name":"Bubu Fashion Services","Category":"O","Long":"6.1907465","Lat":"6.254013","Type":"ClothingStore","SubType":"ClothingStore","Label":"'FoodJoint','ClothingStore','Entertainment','Female Adults','Male Adults'","Cluster":"1","SubCluster":"2","CLat_sub":"6.252934727","CLong_sub":"6.259183161","CityId":"103","UserId":"15","SubClusterFinal":"1"},"geometry":{"type":"Point","coordinates":[6.190747,6.254013]}},{"type":"Feature","properties":{"CityName":"Delta","CityType":"N","Name":"BBCLASSIC Enterprise","Category":"O","Long":"6.1877848","Lat":"6.2419047","Type":"ClothingStore","SubType":"ClothingStore","Label":"'FoodJoint','ClothingStore','Entertainment','Female Adults','Male Adults'","Cluster":"1","SubCluster":"2","CLat_sub":"6.252934727","CLong_sub":"6.259183161","CityId":"103","UserId":"15","SubClusterFinal":"1"},"geometry":{"type":"Point","coordinates":[6.187785,6.241905]}},{"type":"Feature","properties":{"CityName":"Delta","CityType":"N","Name":"Unisex Fashion Designer","Category":"O","Long":"6.2074427","Lat":"6.2484327","Type":"ClothingStore","SubType":"ClothingStore","Label":"'FoodJoint','ClothingStore','Entertainment','Female Adults','Male Adults'","Cluster":"1","SubCluster":"2","CLat_sub":"6.252934727","CLong_sub":"6.259183161","CityId":"103","UserId":"15","SubClusterFinal":"1"},"geometry":{"type":"Point","coordinates":[6.207443,6.248433]}},{"type":"Feature","properties":{"CityName":"Delta","CityType":"N","Name":"Canas Effort Company Limited","Category":"O","Long":"6.1877848","Lat":"6.2419047","Type":"ClothingStore","SubType":"ClothingStore","Label":"'FoodJoint','ClothingStore','Entertainment','Female Adults','Male Adults'","Cluster":"1","SubCluster":"2","CLat_sub":"6.252934727","CLong_sub":"6.259183161","CityId":"103","UserId":"15","SubClusterFinal":"1"},"geometry":{"type":"Point","coordinates":[6.187785,6.241905]}},{"type":"Feature","properties":{"CityName":"Delta","CityType":"N","Name":"Angels Boutique","Category":"O","Long":"6.4258582","Lat":"6.2386984","Type":"ClothingStore","SubType":"ClothingStore","Label":"'FoodJoint','ClothingStore','Entertainment','Female Adults','Male Adults'","Cluster":"1","SubCluster":"2","CLat_sub":"6.252934727","CLong_sub":"6.259183161","CityId":"103","UserId":"15","SubClusterFinal":"1"},"geometry":{"type":"Point","coordinates":[6.425858,6.238698]}},{"type":"Feature","properties":{"CityName":"Delta","CityType":"N","Name":"Xclusive Wears","Category":"O","Long":"6.4258506","Lat":"6.2386984","Type":"ClothingStore","SubType":"ClothingStore","Label":"'FoodJoint','ClothingStore','Entertainment','Female Adults','Male Adults'","Cluster":"1","SubCluster":"2","CLat_sub":"6.252934727","CLong_sub":"6.259183161","CityId":"103","UserId":"15","SubClusterFinal":"1"},"geometry":{"type":"Point","coordinates":[6.425851,6.238698]}},{"type":"Feature","properties":{"CityName":"Delta","CityType":"N","Name":"BB Viv Clothing","Category":"O","Long":"6.471658","Lat":"6.3460797","Type":"ClothingStore","SubType":"ClothingStore","Label":"'FoodJoint','ClothingStore','Entertainment','Female Adults','Male Adults'","Cluster":"1","SubCluster":"2","CLat_sub":"6.252934727","CLong_sub":"6.259183161","CityId":"103","UserId":"15","SubClusterFinal":"1"},"geometry":{"type":"Point","coordinates":[6.471658,6.34608]}},{"type":"Feature","properties":{"CityName":"Delta","CityType":"N","Name":"Cj Clothings","Category":"O","Long":"6.4258582","Lat":"6.2386984","Type":"ClothingStore","SubType":"ClothingStore","Label":"'FoodJoint','ClothingStore','Entertainment','Female Adults','Male Adults'","Cluster":"1","SubCluster":"2","CLat_sub":"6.252934727","CLong_sub":"6.259183161","CityId":"103","UserId":"15","SubClusterFinal":"1"},"geometry":{"type":"Point","coordinates":[6.425858,6.238698]}},{"type":"Feature","properties":{"CityName":"Delta","CityType":"N","Name":"A R Twins Fashion Designer","Category":"O","Long":"6.4258582","Lat":"6.2386984","Type":"ClothingStore","SubType":"ClothingStore","Label":"'FoodJoint','ClothingStore','Entertainment','Female Adults','Male Adults'","Cluster":"1","SubCluster":"2","CLat_sub":"6.252934727","CLong_sub":"6.259183161","CityId":"103","UserId":"15","SubClusterFinal":"1"},"geometry":{"type":"Point","coordinates":[6.425858,6.238698]}},{"type":"Feature","properties":{"CityName":"Delta","CityType":"N","Name":"AC Inner Wears","Category":"O","Long":"6.4258582","Lat":"6.2386984","Type":"ClothingStore","SubType":"ClothingStore","Label":"'FoodJoint','ClothingStore','Entertainment','Female Adults','Male Adults'","Cluster":"1","SubCluster":"2","CLat_sub":"6.252934727","CLong_sub":"6.259183161","CityId":"103","UserId":"15","SubClusterFinal":"1"},"geometry":{"type":"Point","coordinates":[6.425858,6.238698]}},{"type":"Feature","properties":{"CityName":"Delta","CityType":"N","Name":"FOUkekwe Enterprses Nigeria","Category":"O","Long":"6.4258582","Lat":"6.2386984","Type":"ClothingStore","SubType":"ClothingStore","Label":"'FoodJoint','ClothingStore','Entertainment','Female Adults','Male Adults'","Cluster":"1","SubCluster":"2","CLat_sub":"6.252934727","CLong_sub":"6.259183161","CityId":"103","UserId":"15","SubClusterFinal":"1"},"geometry":{"type":"Point","coordinates":[6.425858,6.238698]}},{"type":"Feature","properties":{"CityName":"Delta","CityType":"N","Name":"2000 Garment","Category":"O","Long":"6.4258582","Lat":"6.2386984","Type":"ClothingStore","SubType":"ClothingStore","Label":"'FoodJoint','ClothingStore','Entertainment','Female Adults','Male Adults'","Cluster":"1","SubCluster":"2","CLat_sub":"6.252934727","CLong_sub":"6.259183161","CityId":"103","UserId":"15","SubClusterFinal":"1"},"geometry":{"type":"Point","coordinates":[6.425858,6.238698]}},{"type":"Feature","properties":{"CityName":"Delta","CityType":"N","Name":"Chrisgath House Of Garment","Category":"O","Long":"6.4258582","Lat":"6.2386984","Type":"ClothingStore","SubType":"ClothingStore","Label":"'FoodJoint','ClothingStore','Entertainment','Female Adults','Male Adults'","Cluster":"1","SubCluster":"2","CLat_sub":"6.252934727","CLong_sub":"6.259183161","CityId":"103","UserId":"15","SubClusterFinal":"1"},"geometry":{"type":"Point","coordinates":[6.425858,6.238698]}},{"type":"Feature","properties":{"CityName":"Delta","CityType":"N","Name":"Lukman Garment","Category":"O","Long":"6.4258582","Lat":"6.2386984","Type":"ClothingStore","SubType":"ClothingStore","Label":"'FoodJoint','ClothingStore','Entertainment','Female Adults','Male Adults'","Cluster":"1","SubCluster":"2","CLat_sub":"6.252934727","CLong_sub":"6.259183161","CityId":"103","UserId":"15","SubClusterFinal":"1"},"geometry":{"type":"Point","coordinates":[6.425858,6.238698]}},{"type":"Feature","properties":{"CityName":"Delta","CityType":"N","Name":"Freedom Matters","Category":"O","Long":"6.4258582","Lat":"6.2386984","Type":"ClothingStore","SubType":"ClothingStore","Label":"'FoodJoint','ClothingStore','Entertainment','Female Adults','Male Adults'","Cluster":"1","SubCluster":"2","CLat_sub":"6.252934727","CLong_sub":"6.259183161","CityId":"103","UserId":"15","SubClusterFinal":"1"},"geometry":{"type":"Point","coordinates":[6.425858,6.238698]}},{"type":"Feature","properties":{"CityName":"Delta","CityType":"N","Name":"Anebelunbu And Company Limited","Category":"O","Long":"6.4258582","Lat":"6.2386984","Type":"ClothingStore","SubType":"ClothingStore","Label":"'FoodJoint','ClothingStore','Entertainment','Female Adults','Male Adults'","Cluster":"1","SubCluster":"2","CLat_sub":"6.252934727","CLong_sub":"6.259183161","CityId":"103","UserId":"15","SubClusterFinal":"1"},"geometry":{"type":"Point","coordinates":[6.425858,6.238698]}},{"type":"Feature","properties":{"CityName":"Delta","CityType":"N","Name":"Achizs Treads","Category":"O","Long":"6.4258582","Lat":"6.2386984","Type":"ClothingStore","SubType":"ClothingStore","Label":"'FoodJoint','ClothingStore','Entertainment','Female Adults','Male Adults'","Cluster":"1","SubCluster":"2","CLat_sub":"6.252934727","CLong_sub":"6.259183161","CityId":"103","UserId":"15","SubClusterFinal":"1"},"geometry":{"type":"Point","coordinates":[6.425858,6.238698]}},{"type":"Feature","properties":{"CityName":"Delta","CityType":"N","Name":"Emman Latest Shoes","Category":"O","Long":"6.4258582","Lat":"6.2386984","Type":"ClothingStore","SubType":"ClothingStore","Label":"'FoodJoint','ClothingStore','Entertainment','Female Adults','Male Adults'","Cluster":"1","SubCluster":"2","CLat_sub":"6.252934727","CLong_sub":"6.259183161","CityId":"103","UserId":"15","SubClusterFinal":"1"},"geometry":{"type":"Point","coordinates":[6.425858,6.238698]}},{"type":"Feature","properties":{"CityName":"Delta","CityType":"N","Name":"God Favour Boutique","Category":"O","Long":"6.471658","Lat":"6.3460797","Type":"ClothingStore","SubType":"ClothingStore","Label":"'FoodJoint','ClothingStore','Entertainment','Female Adults','Male Adults'","Cluster":"1","SubCluster":"2","CLat_sub":"6.252934727","CLong_sub":"6.259183161","CityId":"103","UserId":"15","SubClusterFinal":"1"},"geometry":{"type":"Point","coordinates":[6.471658,6.34608]}},{"type":"Feature","properties":{"CityName":"Delta","CityType":"N","Name":"Malife","Category":"O","Long":"6.4258582","Lat":"6.2386984","Type":"ClothingStore","SubType":"ClothingStore","Label":"'FoodJoint','ClothingStore','Entertainment','Female Adults','Male Adults'","Cluster":"1","SubCluster":"2","CLat_sub":"6.252934727","CLong_sub":"6.259183161","CityId":"103","UserId":"15","SubClusterFinal":"1"},"geometry":{"type":"Point","coordinates":[6.425858,6.238698]}},{"type":"Feature","properties":{"CityName":"Delta","CityType":"N","Name":"Egwuonwu And Sons Nigeria Limited","Category":"O","Long":"6.4258104","Lat":"6.2386985","Type":"ClothingStore","SubType":"ClothingStore","Label":"'FoodJoint','ClothingStore','Entertainment','Female Adults','Male Adults'","Cluster":"1","SubCluster":"2","CLat_sub":"6.252934727","CLong_sub":"6.259183161","CityId":"103","UserId":"15","SubClusterFinal":"1"},"geometry":{"type":"Point","coordinates":[6.42581,6.238698]}},{"type":"Feature","properties":{"CityName":"Delta","CityType":"N","Name":"Anyistock Investment Nigeria","Category":"O","Long":"6.4258582","Lat":"6.2386984","Type":"ClothingStore","SubType":"ClothingStore","Label":"'FoodJoint','ClothingStore','Entertainment','Female Adults','Male Adults'","Cluster":"1","SubCluster":"2","CLat_sub":"6.252934727","CLong_sub":"6.259183161","CityId":"103","UserId":"15","SubClusterFinal":"1"},"geometry":{"type":"Point","coordinates":[6.425858,6.238698]}},{"type":"Feature","properties":{"CityName":"Delta","CityType":"N","Name":"Know Ur Choice Boutique","Category":"O","Long":"6.4258582","Lat":"6.2386984","Type":"ClothingStore","SubType":"ClothingStore","Label":"'FoodJoint','ClothingStore','Entertainment','Female Adults','Male Adults'","Cluster":"1","SubCluster":"2","CLat_sub":"6.252934727","CLong_sub":"6.259183161","CityId":"103","UserId":"15","SubClusterFinal":"1"},"geometry":{"type":"Point","coordinates":[6.425858,6.238698]}},{"type":"Feature","properties":{"CityName":"Delta","CityType":"N","Name":"Ken Chisco International Business Nigeria","Category":"O","Long":"6.4258582","Lat":"6.2386984","Type":"ClothingStore","SubType":"ClothingStore","Label":"'FoodJoint','ClothingStore','Entertainment','Female Adults','Male Adults'","Cluster":"1","SubCluster":"2","CLat_sub":"6.252934727","CLong_sub":"6.259183161","CityId":"103","UserId":"15","SubClusterFinal":"1"},"geometry":{"type":"Point","coordinates":[6.425858,6.238698]}},{"type":"Feature","properties":{"CityName":"Delta","CityType":"N","Name":"Jandqclothings (Asaba boutique)","Category":"O","Long":"6.7085395","Lat":"6.211937","Type":"ClothingStore","SubType":"ClothingStore","Label":"'FoodJoint','ClothingStore','Entertainment','Female Adults','Male Adults'","Cluster":"1","SubCluster":"1","CLat_sub":"6.202049584","CLong_sub":"6.69486274","CityId":"103","UserId":"15","SubClusterFinal":"2"},"geometry":{"type":"Point","coordinates":[6.708539,6.211937]}},{"type":"Feature","properties":{"CityName":"Delta","CityType":"N","Name":"Nu Chapta Clothing","Category":"O","Long":"6.7138425","Lat":"6.2086494","Type":"ClothingStore","SubType":"ClothingStore","Label":"'FoodJoint','ClothingStore','Entertainment','Female Adults','Male Adults'","Cluster":"1","SubCluster":"1","CLat_sub":"6.202049584","CLong_sub":"6.69486274","CityId":"103","UserId":"15","SubClusterFinal":"2"},"geometry":{"type":"Point","coordinates":[6.713843,6.208649]}},{"type":"Feature","properties":{"CityName":"Delta","CityType":"N","Name":"Dress Code","Category":"O","Long":"6.7249254","Lat":"6.2051875","Type":"ClothingStore","SubType":"ClothingStore","Label":"'FoodJoint','ClothingStore','Entertainment','Female Adults','Male Adults'","Cluster":"1","SubCluster":"1","CLat_sub":"6.202049584","CLong_sub":"6.69486274","CityId":"103","UserId":"15","SubClusterFinal":"2"},"geometry":{"type":"Point","coordinates":[6.724925,6.205188]}},{"type":"Feature","properties":{"CityName":"Delta","CityType":"N","Name":"N&F clothing","Category":"O","Long":"6.6998945","Lat":"6.2107847","Type":"ClothingStore","SubType":"ClothingStore","Label":"'FoodJoint','ClothingStore','Entertainment','Female Adults','Male Adults'","Cluster":"1","SubCluster":"1","CLat_sub":"6.202049584","CLong_sub":"6.69486274","CityId":"103","UserId":"15","SubClusterFinal":"2"},"geometry":{"type":"Point","coordinates":[6.699895,6.210785]}},{"type":"Feature","properties":{"CityName":"Delta","CityType":"N","Name":"Bees Clothing Smt.","Category":"O","Long":"6.704906","Lat":"6.2139429","Type":"ClothingStore","SubType":"ClothingStore","Label":"'FoodJoint','ClothingStore','Entertainment','Female Adults','Male Adults'","Cluster":"1","SubCluster":"1","CLat_sub":"6.202049584","CLong_sub":"6.69486274","CityId":"103","UserId":"15","SubClusterFinal":"2"},"geometry":{"type":"Point","coordinates":[6.704906,6.213943]}},{"type":"Feature","properties":{"CityName":"Delta","CityType":"N","Name":"Blessed Sunny Boutique","Category":"O","Long":"6.7262296","Lat":"6.2049322","Type":"ClothingStore","SubType":"ClothingStore","Label":"'FoodJoint','ClothingStore','Entertainment','Female Adults','Male Adults'","Cluster":"1","SubCluster":"1","CLat_sub":"6.202049584","CLong_sub":"6.69486274","CityId":"103","UserId":"15","SubClusterFinal":"2"},"geometry":{"type":"Point","coordinates":[6.72623,6.204932]}},{"type":"Feature","properties":{"CityName":"Delta","CityType":"N","Name":"Mimimax Clothing's","Category":"O","Long":"6.6665618","Lat":"6.1838045","Type":"ClothingStore","SubType":"ClothingStore","Label":"'FoodJoint','ClothingStore','Entertainment','Female Adults','Male Adults'","Cluster":"1","SubCluster":"1","CLat_sub":"6.202049584","CLong_sub":"6.69486274","CityId":"103","UserId":"15","SubClusterFinal":"2"},"geometry":{"type":"Point","coordinates":[6.666562,6.183804]}},{"type":"Feature","properties":{"CityName":"Delta","CityType":"N","Name":"Ebbie Fortizo Clothing Ventures","Category":"O","Long":"6.6959317","Lat":"6.2060187","Type":"ClothingStore","SubType":"ClothingStore","Label":"'FoodJoint','ClothingStore','Entertainment','Female Adults','Male Adults'","Cluster":"1","SubCluster":"1","CLat_sub":"6.202049584","CLong_sub":"6.69486274","CityId":"103","UserId":"15","SubClusterFinal":"2"},"geometry":{"type":"Point","coordinates":[6.695932,6.206019]}},{"type":"Feature","properties":{"CityName":"Delta","CityType":"N","Name":"Dorc D Clothing","Category":"O","Long":"6.7111347","Lat":"6.2114764","Type":"ClothingStore","SubType":"ClothingStore","Label":"'FoodJoint','ClothingStore','Entertainment','Female Adults','Male Adults'","Cluster":"1","SubCluster":"1","CLat_sub":"6.202049584","CLong_sub":"6.69486274","CityId":"103","UserId":"15","SubClusterFinal":"2"},"geometry":{"type":"Point","coordinates":[6.711135,6.211476]}},{"type":"Feature","properties":{"CityName":"Delta","CityType":"N","Name":"Essence__clothing","Category":"O","Long":"6.711131","Lat":"6.2001149","Type":"ClothingStore","SubType":"ClothingStore","Label":"'FoodJoint','ClothingStore','Entertainment','Female Adults','Male Adults'","Cluster":"1","SubCluster":"1","CLat_sub":"6.202049584","CLong_sub":"6.69486274","CityId":"103","UserId":"15","SubClusterFinal":"2"},"geometry":{"type":"Point","coordinates":[6.711131,6.200115]}},{"type":"Feature","properties":{"CityName":"Delta","CityType":"N","Name":"Ehc Clothing","Category":"O","Long":"6.7005912","Lat":"6.2136099","Type":"ClothingStore","SubType":"ClothingStore","Label":"'FoodJoint','ClothingStore','Entertainment','Female Adults','Male Adults'","Cluster":"1","SubCluster":"1","CLat_sub":"6.202049584","CLong_sub":"6.69486274","CityId":"103","UserId":"15","SubClusterFinal":"2"},"geometry":{"type":"Point","coordinates":[6.700591,6.21361]}},{"type":"Feature","properties":{"CityName":"Delta","CityType":"N","Name":"Frank collection","Category":"O","Long":"6.1904004","Lat":"6.2548068","Type":"ClothingStore","SubType":"ClothingStore","Label":"'FoodJoint','ClothingStore','Entertainment','Female Adults','Male Adults'","Cluster":"1","SubCluster":"2","CLat_sub":"6.252934727","CLong_sub":"6.259183161","CityId":"103","UserId":"15","SubClusterFinal":"1"},"geometry":{"type":"Point","coordinates":[6.1904,6.254807]}},{"type":"Feature","properties":{"CityName":"Delta","CityType":"N","Name":"Pat O","Category":"O","Long":"6.1861015","Lat":"6.2666294","Type":"ClothingStore","SubType":"ClothingStore","Label":"'FoodJoint','ClothingStore','Entertainment','Female Adults','Male Adults'","Cluster":"1","SubCluster":"2","CLat_sub":"6.252934727","CLong_sub":"6.259183161","CityId":"103","UserId":"15","SubClusterFinal":"1"},"geometry":{"type":"Point","coordinates":[6.186102,6.266629]}},{"type":"Feature","properties":{"CityName":"Delta","CityType":"N","Name":"SARAHP COLLECTION","Category":"O","Long":"6.685128","Lat":"6.2240296","Type":"ClothingStore","SubType":"ClothingStore","Label":"'FoodJoint','ClothingStore','Entertainment','Female Adults','Male Adults'","Cluster":"1","SubCluster":"1","CLat_sub":"6.202049584","CLong_sub":"6.69486274","CityId":"103","UserId":"15","SubClusterFinal":"2"},"geometry":{"type":"Point","coordinates":[6.685128,6.22403]}},{"type":"Feature","properties":{"CityName":"Delta","CityType":"N","Name":"Jay-Arc Luxury","Category":"O","Long":"6.7390514","Lat":"6.1911593","Type":"ClothingStore","SubType":"ClothingStore","Label":"'FoodJoint','ClothingStore','Entertainment','Female Adults','Male Adults'","Cluster":"1","SubCluster":"1","CLat_sub":"6.202049584","CLong_sub":"6.69486274","CityId":"103","UserId":"15","SubClusterFinal":"2"},"geometry":{"type":"Point","coordinates":[6.739051,6.191159]}},{"type":"Feature","properties":{"CityName":"Delta","CityType":"N","Name":"Royal Boutique","Category":"O","Long":"6.7402735","Lat":"6.1949637","Type":"ClothingStore","SubType":"ClothingStore","Label":"'FoodJoint','ClothingStore','Entertainment','Female Adults','Male Adults'","Cluster":"1","SubCluster":"1","CLat_sub":"6.202049584","CLong_sub":"6.69486274","CityId":"103","UserId":"15","SubClusterFinal":"2"},"geometry":{"type":"Point","coordinates":[6.740273,6.194964]}},{"type":"Feature","properties":{"CityName":"Delta","CityType":"N","Name":"Louis Boutique","Category":"O","Long":"6.7402739","Lat":"6.1949613","Type":"ClothingStore","SubType":"ClothingStore","Label":"'FoodJoint','ClothingStore','Entertainment','Female Adults','Male Adults'","Cluster":"1","SubCluster":"1","CLat_sub":"6.202049584","CLong_sub":"6.69486274","CityId":"103","UserId":"15","SubClusterFinal":"2"},"geometry":{"type":"Point","coordinates":[6.740274,6.194961]}},{"type":"Feature","properties":{"CityName":"Delta","CityType":"N","Name":"Successful Collections","Category":"O","Long":"6.7325986","Lat":"6.1988295","Type":"ClothingStore","SubType":"ClothingStore","Label":"'FoodJoint','ClothingStore','Entertainment','Female Adults','Male Adults'","Cluster":"1","SubCluster":"1","CLat_sub":"6.202049584","CLong_sub":"6.69486274","CityId":"103","UserId":"15","SubClusterFinal":"2"},"geometry":{"type":"Point","coordinates":[6.732599,6.19883]}},{"type":"Feature","properties":{"CityName":"Delta","CityType":"N","Name":"Choice collection boutique","Category":"O","Long":"6.7400815","Lat":"6.1940475","Type":"ClothingStore","SubType":"ClothingStore","Label":"'FoodJoint','ClothingStore','Entertainment','Female Adults','Male Adults'","Cluster":"1","SubCluster":"1","CLat_sub":"6.202049584","CLong_sub":"6.69486274","CityId":"103","UserId":"15","SubClusterFinal":"2"},"geometry":{"type":"Point","coordinates":[6.740081,6.194047]}},{"type":"Feature","properties":{"CityName":"Delta","CityType":"N","Name":"D Gift Collection Fashion home","Category":"O","Long":"6.7387845","Lat":"6.1913631","Type":"ClothingStore","SubType":"ClothingStore","Label":"'FoodJoint','ClothingStore','Entertainment','Female Adults','Male Adults'","Cluster":"1","SubCluster":"1","CLat_sub":"6.202049584","CLong_sub":"6.69486274","CityId":"103","UserId":"15","SubClusterFinal":"2"},"geometry":{"type":"Point","coordinates":[6.738785,6.191363]}},{"type":"Feature","properties":{"CityName":"Delta","CityType":"N","Name":"FEGENE BOUTIQUE","Category":"O","Long":"6.3023105","Lat":"6.2737493","Type":"ClothingStore","SubType":"ClothingStore","Label":"'FoodJoint','ClothingStore','Entertainment','Female Adults','Male Adults'","Cluster":"1","SubCluster":"2","CLat_sub":"6.252934727","CLong_sub":"6.259183161","CityId":"103","UserId":"15","SubClusterFinal":"1"},"geometry":{"type":"Point","coordinates":[6.30231,6.273749]}},{"type":"Feature","properties":{"CityName":"Delta","CityType":"N","Name":"De Big Cele International Nigeria","Category":"O","Long":"6.4258582","Lat":"6.2386984","Type":"ClothingStore","SubType":"ClothingStore","Label":"'FoodJoint','ClothingStore','Entertainment','Female Adults','Male Adults'","Cluster":"1","SubCluster":"2","CLat_sub":"6.252934727","CLong_sub":"6.259183161","CityId":"103","UserId":"15","SubClusterFinal":"1"},"geometry":{"type":"Point","coordinates":[6.425858,6.238698]}},{"type":"Feature","properties":{"CityName":"Delta","CityType":"N","Name":"NYNYSWORLD.NG","Category":"O","Long":"6.2123029","Lat":"6.2607298","Type":"ClothingStore","SubType":"ClothingStore","Label":"'FoodJoint','ClothingStore','Entertainment','Female Adults','Male Adults'","Cluster":"1","SubCluster":"2","CLat_sub":"6.252934727","CLong_sub":"6.259183161","CityId":"103","UserId":"15","SubClusterFinal":"1"},"geometry":{"type":"Point","coordinates":[6.212303,6.26073]}},{"type":"Feature","properties":{"CityName":"Delta","CityType":"N","Name":"Mimi De villion unisex closet","Category":"O","Long":"6.2057453","Lat":"6.2578048","Type":"ClothingStore","SubType":"ClothingStore","Label":"'FoodJoint','ClothingStore','Entertainment','Female Adults','Male Adults'","Cluster":"1","SubCluster":"2","CLat_sub":"6.252934727","CLong_sub":"6.259183161","CityId":"103","UserId":"15","SubClusterFinal":"1"},"geometry":{"type":"Point","coordinates":[6.205745,6.257805]}},{"type":"Feature","properties":{"CityName":"Delta","CityType":"N","Name":"Patrical","Category":"O","Long":"6.205701","Lat":"6.2541431","Type":"ClothingStore","SubType":"ClothingStore","Label":"'FoodJoint','ClothingStore','Entertainment','Female Adults','Male Adults'","Cluster":"1","SubCluster":"2","CLat_sub":"6.252934727","CLong_sub":"6.259183161","CityId":"103","UserId":"15","SubClusterFinal":"1"},"geometry":{"type":"Point","coordinates":[6.205701,6.254143]}},{"type":"Feature","properties":{"CityName":"Delta","CityType":"N","Name":"FON Fashion","Category":"O","Long":"6.6867256","Lat":"6.182665","Type":"ClothingStore","SubType":"ClothingStore","Label":"'FoodJoint','ClothingStore','Entertainment','Female Adults','Male Adults'","Cluster":"1","SubCluster":"1","CLat_sub":"6.202049584","CLong_sub":"6.69486274","CityId":"103","UserId":"15","SubClusterFinal":"2"},"geometry":{"type":"Point","coordinates":[6.686726,6.182665]}},{"type":"Feature","properties":{"CityName":"Delta","CityType":"N","Name":"D-praise collection","Category":"O","Long":"6.2057009","Lat":"6.2541433","Type":"ClothingStore","SubType":"ClothingStore","Label":"'FoodJoint','ClothingStore','Entertainment','Female Adults','Male Adults'","Cluster":"1","SubCluster":"2","CLat_sub":"6.252934727","CLong_sub":"6.259183161","CityId":"103","UserId":"15","SubClusterFinal":"1"},"geometry":{"type":"Point","coordinates":[6.205701,6.254143]}},{"type":"Feature","properties":{"CityName":"Delta","CityType":"N","Name":"Muna's Collection","Category":"O","Long":"6.2057009","Lat":"6.2541433","Type":"ClothingStore","SubType":"ClothingStore","Label":"'FoodJoint','ClothingStore','Entertainment','Female Adults','Male Adults'","Cluster":"1","SubCluster":"2","CLat_sub":"6.252934727","CLong_sub":"6.259183161","CityId":"103","UserId":"15","SubClusterFinal":"1"},"geometry":{"type":"Point","coordinates":[6.205701,6.254143]}},{"type":"Feature","properties":{"CityName":"Delta","CityType":"N","Name":"VIVA-V STORES","Category":"O","Long":"6.203684","Lat":"6.2636769","Type":"ClothingStore","SubType":"ClothingStore","Label":"'FoodJoint','ClothingStore','Entertainment','Female Adults','Male Adults'","Cluster":"1","SubCluster":"2","CLat_sub":"6.252934727","CLong_sub":"6.259183161","CityId":"103","UserId":"15","SubClusterFinal":"1"},"geometry":{"type":"Point","coordinates":[6.203684,6.263677]}},{"type":"Feature","properties":{"CityName":"Delta","CityType":"N","Name":"Exsess Wears","Category":"O","Long":"6.2160383","Lat":"6.2565989","Type":"ClothingStore","SubType":"ClothingStore","Label":"'FoodJoint','ClothingStore','Entertainment','Female Adults','Male Adults'","Cluster":"1","SubCluster":"2","CLat_sub":"6.252934727","CLong_sub":"6.259183161","CityId":"103","UserId":"15","SubClusterFinal":"1"},"geometry":{"type":"Point","coordinates":[6.216038,6.256599]}},{"type":"Feature","properties":{"CityName":"Delta","CityType":"N","Name":"P-Clothing","Category":"O","Long":"6.7061756","Lat":"6.2055289","Type":"ClothingStore","SubType":"ClothingStore","Label":"'FoodJoint','ClothingStore','Entertainment','Female Adults','Male Adults'","Cluster":"1","SubCluster":"1","CLat_sub":"6.202049584","CLong_sub":"6.69486274","CityId":"103","UserId":"15","SubClusterFinal":"2"},"geometry":{"type":"Point","coordinates":[6.706176,6.205529]}},{"type":"Feature","properties":{"CityName":"Delta","CityType":"N","Name":"New Aza Wears & Hair Cut Plaza","Category":"O","Long":"6.2094406","Lat":"6.2626366","Type":"ClothingStore","SubType":"ClothingStore","Label":"'FoodJoint','ClothingStore','Entertainment','Female Adults','Male Adults'","Cluster":"1","SubCluster":"2","CLat_sub":"6.252934727","CLong_sub":"6.259183161","CityId":"103","UserId":"15","SubClusterFinal":"1"},"geometry":{"type":"Point","coordinates":[6.209441,6.262637]}},{"type":"Feature","properties":{"CityName":"Delta","CityType":"N","Name":"Dreams luxury Clothing","Category":"O","Long":"6.6854757","Lat":"6.2228992","Type":"ClothingStore","SubType":"ClothingStore","Label":"'FoodJoint','ClothingStore','Entertainment','Female Adults','Male Adults'","Cluster":"1","SubCluster":"1","CLat_sub":"6.202049584","CLong_sub":"6.69486274","CityId":"103","UserId":"15","SubClusterFinal":"2"},"geometry":{"type":"Point","coordinates":[6.685476,6.222899]}},{"type":"Feature","properties":{"CityName":"Delta","CityType":"N","Name":"Treasure outfit","Category":"O","Long":"6.7218543","Lat":"6.2055257","Type":"ClothingStore","SubType":"ClothingStore","Label":"'FoodJoint','ClothingStore','Entertainment','Female Adults','Male Adults'","Cluster":"1","SubCluster":"1","CLat_sub":"6.202049584","CLong_sub":"6.69486274","CityId":"103","UserId":"15","SubClusterFinal":"2"},"geometry":{"type":"Point","coordinates":[6.721854,6.205526]}},{"type":"Feature","properties":{"CityName":"Delta","CityType":"N","Name":"FlyNation Luxurious Wears","Category":"O","Long":"6.7139653","Lat":"6.1940286","Type":"ClothingStore","SubType":"ClothingStore","Label":"'FoodJoint','ClothingStore','Entertainment','Female Adults','Male Adults'","Cluster":"1","SubCluster":"1","CLat_sub":"6.202049584","CLong_sub":"6.69486274","CityId":"103","UserId":"15","SubClusterFinal":"2"},"geometry":{"type":"Point","coordinates":[6.713965,6.194029]}},{"type":"Feature","properties":{"CityName":"Delta","CityType":"N","Name":"Sure-Guyz Outfit","Category":"O","Long":"6.7164163","Lat":"6.1937041","Type":"ClothingStore","SubType":"ClothingStore","Label":"'FoodJoint','ClothingStore','Entertainment','Female Adults','Male Adults'","Cluster":"1","SubCluster":"1","CLat_sub":"6.202049584","CLong_sub":"6.69486274","CityId":"103","UserId":"15","SubClusterFinal":"2"},"geometry":{"type":"Point","coordinates":[6.716416,6.193704]}},{"type":"Feature","properties":{"CityName":"Delta","CityType":"N","Name":"Finest Exclusive Garge","Category":"O","Long":"6.715648","Lat":"6.1939767","Type":"ClothingStore","SubType":"ClothingStore","Label":"'FoodJoint','ClothingStore','Entertainment','Female Adults','Male Adults'","Cluster":"1","SubCluster":"1","CLat_sub":"6.202049584","CLong_sub":"6.69486274","CityId":"103","UserId":"15","SubClusterFinal":"2"},"geometry":{"type":"Point","coordinates":[6.715648,6.193977]}},{"type":"Feature","properties":{"CityName":"Delta","CityType":"N","Name":"Shirtsville","Category":"O","Long":"6.711131","Lat":"6.2001149","Type":"ClothingStore","SubType":"ClothingStore","Label":"'FoodJoint','ClothingStore','Entertainment','Female Adults','Male Adults'","Cluster":"1","SubCluster":"1","CLat_sub":"6.202049584","CLong_sub":"6.69486274","CityId":"103","UserId":"15","SubClusterFinal":"2"},"geometry":{"type":"Point","coordinates":[6.711131,6.200115]}},{"type":"Feature","properties":{"CityName":"Delta","CityType":"N","Name":"Zinny Symbol (Fashion Home)","Category":"O","Long":"6.708711","Lat":"6.1930829","Type":"ClothingStore","SubType":"ClothingStore","Label":"'FoodJoint','ClothingStore','Entertainment','Female Adults','Male Adults'","Cluster":"1","SubCluster":"1","CLat_sub":"6.202049584","CLong_sub":"6.69486274","CityId":"103","UserId":"15","SubClusterFinal":"2"},"geometry":{"type":"Point","coordinates":[6.708711,6.193083]}},{"type":"Feature","properties":{"CityName":"Delta","CityType":"N","Name":"Flora C. Collections","Category":"O","Long":"6.7179191","Lat":"6.1928178","Type":"ClothingStore","SubType":"ClothingStore","Label":"'FoodJoint','ClothingStore','Entertainment','Female Adults','Male Adults'","Cluster":"1","SubCluster":"1","CLat_sub":"6.202049584","CLong_sub":"6.69486274","CityId":"103","UserId":"15","SubClusterFinal":"2"},"geometry":{"type":"Point","coordinates":[6.717919,6.192818]}},{"type":"Feature","properties":{"CityName":"Delta","CityType":"N","Name":"Blue Bell","Category":"O","Long":"6.7125683","Lat":"6.2000476","Type":"ClothingStore","SubType":"ClothingStore","Label":"'FoodJoint','ClothingStore','Entertainment','Female Adults','Male Adults'","Cluster":"1","SubCluster":"1","CLat_sub":"6.202049584","CLong_sub":"6.69486274","CityId":"103","UserId":"15","SubClusterFinal":"2"},"geometry":{"type":"Point","coordinates":[6.712568,6.200048]}},{"type":"Feature","properties":{"CityName":"Delta","CityType":"N","Name":"Matino og store","Category":"O","Long":"6.7151386","Lat":"6.1937058","Type":"ClothingStore","SubType":"ClothingStore","Label":"'FoodJoint','ClothingStore','Entertainment','Female Adults','Male Adults'","Cluster":"1","SubCluster":"1","CLat_sub":"6.202049584","CLong_sub":"6.69486274","CityId":"103","UserId":"15","SubClusterFinal":"2"},"geometry":{"type":"Point","coordinates":[6.715139,6.193706]}},{"type":"Feature","properties":{"CityName":"Delta","CityType":"N","Name":"Turkey Fashion Room","Category":"O","Long":"6.7157187","Lat":"6.1939713","Type":"ClothingStore","SubType":"ClothingStore","Label":"'FoodJoint','ClothingStore','Entertainment','Female Adults','Male Adults'","Cluster":"1","SubCluster":"1","CLat_sub":"6.202049584","CLong_sub":"6.69486274","CityId":"103","UserId":"15","SubClusterFinal":"2"},"geometry":{"type":"Point","coordinates":[6.715719,6.193971]}},{"type":"Feature","properties":{"CityName":"Delta","CityType":"N","Name":"JULI'S FASHION AFFAIRS","Category":"O","Long":"6.7086601","Lat":"6.2003905","Type":"ClothingStore","SubType":"ClothingStore","Label":"'FoodJoint','ClothingStore','Entertainment','Female Adults','Male Adults'","Cluster":"1","SubCluster":"1","CLat_sub":"6.202049584","CLong_sub":"6.69486274","CityId":"103","UserId":"15","SubClusterFinal":"2"},"geometry":{"type":"Point","coordinates":[6.70866,6.200391]}},{"type":"Feature","properties":{"CityName":"Delta","CityType":"N","Name":"Ruthy's Collections","Category":"O","Long":"6.7149347","Lat":"6.2009556","Type":"ClothingStore","SubType":"ClothingStore","Label":"'FoodJoint','ClothingStore','Entertainment','Female Adults','Male Adults'","Cluster":"1","SubCluster":"1","CLat_sub":"6.202049584","CLong_sub":"6.69486274","CityId":"103","UserId":"15","SubClusterFinal":"2"},"geometry":{"type":"Point","coordinates":[6.714935,6.200956]}},{"type":"Feature","properties":{"CityName":"Delta","CityType":"N","Name":"MJ Collections luxury and affordable","Category":"O","Long":"6.711131","Lat":"6.2001149","Type":"ClothingStore","SubType":"ClothingStore","Label":"'FoodJoint','ClothingStore','Entertainment','Female Adults','Male Adults'","Cluster":"1","SubCluster":"1","CLat_sub":"6.202049584","CLong_sub":"6.69486274","CityId":"103","UserId":"15","SubClusterFinal":"2"},"geometry":{"type":"Point","coordinates":[6.711131,6.200115]}},{"type":"Feature","properties":{"CityName":"Delta","CityType":"N","Name":"Delight fashion & fabric","Category":"O","Long":"6.711131","Lat":"6.2001149","Type":"ClothingStore","SubType":"ClothingStore","Label":"'FoodJoint','ClothingStore','Entertainment','Female Adults','Male Adults'","Cluster":"1","SubCluster":"1","CLat_sub":"6.202049584","CLong_sub":"6.69486274","CityId":"103","UserId":"15","SubClusterFinal":"2"},"geometry":{"type":"Point","coordinates":[6.711131,6.200115]}},{"type":"Feature","properties":{"CityName":"Delta","CityType":"N","Name":"Precious Perfection Collections","Category":"O","Long":"6.7127313","Lat":"6.2019179","Type":"ClothingStore","SubType":"ClothingStore","Label":"'FoodJoint','ClothingStore','Entertainment','Female Adults','Male Adults'","Cluster":"1","SubCluster":"1","CLat_sub":"6.202049584","CLong_sub":"6.69486274","CityId":"103","UserId":"15","SubClusterFinal":"2"},"geometry":{"type":"Point","coordinates":[6.712731,6.201918]}},{"type":"Feature","properties":{"CityName":"Delta","CityType":"N","Name":"LUGARD","Category":"O","Long":"6.711131","Lat":"6.2001149","Type":"ClothingStore","SubType":"ClothingStore","Label":"'FoodJoint','ClothingStore','Entertainment','Female Adults','Male Adults'","Cluster":"1","SubCluster":"1","CLat_sub":"6.202049584","CLong_sub":"6.69486274","CityId":"103","UserId":"15","SubClusterFinal":"2"},"geometry":{"type":"Point","coordinates":[6.711131,6.200115]}},{"type":"Feature","properties":{"CityName":"Delta","CityType":"N","Name":"OGO P UNISEX BOUTIQUE","Category":"O","Long":"6.711131","Lat":"6.2001149","Type":"ClothingStore","SubType":"ClothingStore","Label":"'FoodJoint','ClothingStore','Entertainment','Female Adults','Male Adults'","Cluster":"1","SubCluster":"1","CLat_sub":"6.202049584","CLong_sub":"6.69486274","CityId":"103","UserId":"15","SubClusterFinal":"2"},"geometry":{"type":"Point","coordinates":[6.711131,6.200115]}},{"type":"Feature","properties":{"CityName":"Delta","CityType":"N","Name":"Blessed Denco Collections","Category":"O","Long":"6.7155036","Lat":"6.1941763","Type":"ClothingStore","SubType":"ClothingStore","Label":"'FoodJoint','ClothingStore','Entertainment','Female Adults','Male Adults'","Cluster":"1","SubCluster":"1","CLat_sub":"6.202049584","CLong_sub":"6.69486274","CityId":"103","UserId":"15","SubClusterFinal":"2"},"geometry":{"type":"Point","coordinates":[6.715504,6.194176]}},{"type":"Feature","properties":{"CityName":"Delta","CityType":"N","Name":"Chimso Kiddies Wrld","Category":"O","Long":"6.7152146","Lat":"6.1941185","Type":"ClothingStore","SubType":"ClothingStore","Label":"'FoodJoint','ClothingStore','Entertainment','Female Adults','Male Adults'","Cluster":"1","SubCluster":"1","CLat_sub":"6.202049584","CLong_sub":"6.69486274","CityId":"103","UserId":"15","SubClusterFinal":"2"},"geometry":{"type":"Point","coordinates":[6.715215,6.194119]}},{"type":"Feature","properties":{"CityName":"Delta","CityType":"N","Name":"Cenesis Boutique","Category":"O","Long":"6.7335504","Lat":"6.2017502","Type":"ClothingStore","SubType":"ClothingStore","Label":"'FoodJoint','ClothingStore','Entertainment','Female Adults','Male Adults'","Cluster":"1","SubCluster":"1","CLat_sub":"6.202049584","CLong_sub":"6.69486274","CityId":"103","UserId":"15","SubClusterFinal":"2"},"geometry":{"type":"Point","coordinates":[6.73355,6.20175]}},{"type":"Feature","properties":{"CityName":"Delta","CityType":"N","Name":"MERCYEBEL STITCHES","Category":"O","Long":"6.735368","Lat":"6.200545","Type":"ClothingStore","SubType":"ClothingStore","Label":"'FoodJoint','ClothingStore','Entertainment','Female Adults','Male Adults'","Cluster":"1","SubCluster":"1","CLat_sub":"6.202049584","CLong_sub":"6.69486274","CityId":"103","UserId":"15","SubClusterFinal":"2"},"geometry":{"type":"Point","coordinates":[6.735368,6.200545]}},{"type":"Feature","properties":{"CityName":"Delta","CityType":"N","Name":"Mama Onome Ogbogonogo","Category":"O","Long":"6.73448","Lat":"6.2013011","Type":"ClothingStore","SubType":"ClothingStore","Label":"'FoodJoint','ClothingStore','Entertainment','Female Adults','Male Adults'","Cluster":"1","SubCluster":"1","CLat_sub":"6.202049584","CLong_sub":"6.69486274","CityId":"103","UserId":"15","SubClusterFinal":"2"},"geometry":{"type":"Point","coordinates":[6.73448,6.201301]}},{"type":"Feature","properties":{"CityName":"Delta","CityType":"N","Name":"Pariz Boutique","Category":"O","Long":"6.7322492","Lat":"6.2022466","Type":"ClothingStore","SubType":"ClothingStore","Label":"'FoodJoint','ClothingStore','Entertainment','Female Adults','Male Adults'","Cluster":"1","SubCluster":"1","CLat_sub":"6.202049584","CLong_sub":"6.69486274","CityId":"103","UserId":"15","SubClusterFinal":"2"},"geometry":{"type":"Point","coordinates":[6.732249,6.202247]}},{"type":"Feature","properties":{"CityName":"Delta","CityType":"N","Name":"Choice Collections","Category":"O","Long":"6.7318652","Lat":"6.2027965","Type":"ClothingStore","SubType":"ClothingStore","Label":"'FoodJoint','ClothingStore','Entertainment','Female Adults','Male Adults'","Cluster":"1","SubCluster":"1","CLat_sub":"6.202049584","CLong_sub":"6.69486274","CityId":"103","UserId":"15","SubClusterFinal":"2"},"geometry":{"type":"Point","coordinates":[6.731865,6.202796]}},{"type":"Feature","properties":{"CityName":"Delta","CityType":"N","Name":"MORRIS","Category":"O","Long":"6.7311477","Lat":"6.1995204","Type":"ClothingStore","SubType":"ClothingStore","Label":"'FoodJoint','ClothingStore','Entertainment','Female Adults','Male Adults'","Cluster":"1","SubCluster":"1","CLat_sub":"6.202049584","CLong_sub":"6.69486274","CityId":"103","UserId":"15","SubClusterFinal":"2"},"geometry":{"type":"Point","coordinates":[6.731148,6.19952]}},{"type":"Feature","properties":{"CityName":"Delta","CityType":"N","Name":"Talking needles fashion home","Category":"O","Long":"6.7311464","Lat":"6.1995181","Type":"ClothingStore","SubType":"ClothingStore","Label":"'FoodJoint','ClothingStore','Entertainment','Female Adults','Male Adults'","Cluster":"1","SubCluster":"1","CLat_sub":"6.202049584","CLong_sub":"6.69486274","CityId":"103","UserId":"15","SubClusterFinal":"2"},"geometry":{"type":"Point","coordinates":[6.731146,6.199518]}},{"type":"Feature","properties":{"CityName":"Delta","CityType":"N","Name":"Life Goes On Concept","Category":"O","Long":"6.7327205","Lat":"6.2019767","Type":"ClothingStore","SubType":"ClothingStore","Label":"'FoodJoint','ClothingStore','Entertainment','Female Adults','Male Adults'","Cluster":"1","SubCluster":"1","CLat_sub":"6.202049584","CLong_sub":"6.69486274","CityId":"103","UserId":"15","SubClusterFinal":"2"},"geometry":{"type":"Point","coordinates":[6.732721,6.201977]}},{"type":"Feature","properties":{"CityName":"Delta","CityType":"N","Name":"IFY BOUTIQUE","Category":"O","Long":"6.7311464","Lat":"6.1995181","Type":"ClothingStore","SubType":"ClothingStore","Label":"'FoodJoint','ClothingStore','Entertainment','Female Adults','Male Adults'","Cluster":"1","SubCluster":"1","CLat_sub":"6.202049584","CLong_sub":"6.69486274","CityId":"103","UserId":"15","SubClusterFinal":"2"},"geometry":{"type":"Point","coordinates":[6.731146,6.199518]}},{"type":"Feature","properties":{"CityName":"Delta","CityType":"N","Name":"Nicky babies collection","Category":"O","Long":"6.7333423","Lat":"6.2030273","Type":"ClothingStore","SubType":"ClothingStore","Label":"'FoodJoint','ClothingStore','Entertainment','Female Adults','Male Adults'","Cluster":"1","SubCluster":"1","CLat_sub":"6.202049584","CLong_sub":"6.69486274","CityId":"103","UserId":"15","SubClusterFinal":"2"},"geometry":{"type":"Point","coordinates":[6.733342,6.203027]}},{"type":"Feature","properties":{"CityName":"Delta","CityType":"N","Name":"Esty Fashion collection","Category":"O","Long":"6.5290407","Lat":"6.1846682","Type":"ClothingStore","SubType":"ClothingStore","Label":"'FoodJoint','ClothingStore','Entertainment','Female Adults','Male Adults'","Cluster":"1","SubCluster":"1","CLat_sub":"6.202049584","CLong_sub":"6.69486274","CityId":"103","UserId":"15","SubClusterFinal":"2"},"geometry":{"type":"Point","coordinates":[6.529041,6.184668]}},{"type":"Feature","properties":{"CityName":"Delta","CityType":"N","Name":"Okeze Fashion World","Category":"O","Long":"6.5287969","Lat":"6.1834269","Type":"ClothingStore","SubType":"ClothingStore","Label":"'FoodJoint','ClothingStore','Entertainment','Female Adults','Male Adults'","Cluster":"1","SubCluster":"1","CLat_sub":"6.202049584","CLong_sub":"6.69486274","CityId":"103","UserId":"15","SubClusterFinal":"2"},"geometry":{"type":"Point","coordinates":[6.528797,6.183427]}},{"type":"Feature","properties":{"CityName":"Delta","CityType":"N","Name":"IJE FASHION WORLD","Category":"O","Long":"6.526728","Lat":"6.18899","Type":"ClothingStore","SubType":"ClothingStore","Label":"'FoodJoint','ClothingStore','Entertainment','Female Adults','Male Adults'","Cluster":"1","SubCluster":"1","CLat_sub":"6.202049584","CLong_sub":"6.69486274","CityId":"103","UserId":"15","SubClusterFinal":"2"},"geometry":{"type":"Point","coordinates":[6.526728,6.18899]}},{"type":"Feature","properties":{"CityName":"Delta","CityType":"N","Name":"Abbas Enterprise","Category":"O","Long":"6.7485898","Lat":"6.1719278","Type":"ClothingStore","SubType":"ClothingStore","Label":"'FoodJoint','ClothingStore','Entertainment','Female Adults','Male Adults'","Cluster":"1","SubCluster":"1","CLat_sub":"6.202049584","CLong_sub":"6.69486274","CityId":"103","UserId":"15","SubClusterFinal":"2"},"geometry":{"type":"Point","coordinates":[6.74859,6.171928]}},{"type":"Feature","properties":{"CityName":"Delta","CityType":"N","Name":"Azu photo and boutique shop","Category":"O","Long":"6.433233","Lat":"5.7015563","Type":"ClothingStore","SubType":"ClothingStore","Label":"'FoodJoint','ClothingStore','Entertainment','Female Adults','Male Adults'","Cluster":"1","SubCluster":"3","CLat_sub":"5.729697858","CLong_sub":"6.415706043","CityId":"103","UserId":"15","SubClusterFinal":"3"},"geometry":{"type":"Point","coordinates":[6.433233,5.701556]}},{"type":"Feature","properties":{"CityName":"Delta","CityType":"N","Name":"ChristyΓÇÖs empire","Category":"O","Long":"6.1901115","Lat":"6.2563001","Type":"ClothingStore","SubType":"ClothingStore","Label":"'FoodJoint','ClothingStore','Entertainment','Female Adults','Male Adults'","Cluster":"1","SubCluster":"2","CLat_sub":"6.252934727","CLong_sub":"6.259183161","CityId":"103","UserId":"15","SubClusterFinal":"1"},"geometry":{"type":"Point","coordinates":[6.190112,6.2563]}},{"type":"Feature","properties":{"CityName":"Delta","CityType":"N","Name":"Gift's wlrd","Category":"O","Long":"6.1924416","Lat":"6.254147","Type":"ClothingStore","SubType":"ClothingStore","Label":"'FoodJoint','ClothingStore','Entertainment','Female Adults','Male Adults'","Cluster":"1","SubCluster":"2","CLat_sub":"6.252934727","CLong_sub":"6.259183161","CityId":"103","UserId":"15","SubClusterFinal":"1"},"geometry":{"type":"Point","coordinates":[6.192442,6.254147]}},{"type":"Feature","properties":{"CityName":"Delta","CityType":"N","Name":"Samandas world","Category":"O","Long":"6.1922991","Lat":"6.2540516","Type":"ClothingStore","SubType":"ClothingStore","Label":"'FoodJoint','ClothingStore','Entertainment','Female Adults','Male Adults'","Cluster":"1","SubCluster":"2","CLat_sub":"6.252934727","CLong_sub":"6.259183161","CityId":"103","UserId":"15","SubClusterFinal":"1"},"geometry":{"type":"Point","coordinates":[6.192299,6.254052]}},